%time,field.header.seq,field.header.stamp,field.header.frame_id,field.child_frame_id,field.transform.translation.x,field.transform.translation.y,field.transform.translation.z,field.transform.rotation.x,field.transform.rotation.y,field.transform.rotation.z,field.transform.rotation.w
1548944159507200062,36173,1548944159507200062,/world,vicon/target3/target3,0.52810696542,-0.98108487355,1.21158031087,-0.0435407334198,-0.000750286282969,0.990918088424,-0.127220217093
1548944159512339585,36174,1548944159512339585,/world,vicon/target3/target3,0.52726622072,-0.980968399412,1.21150719946,-0.0435674574068,-0.00018876713367,0.990756306301,-0.128467048489
1548944159517392910,36175,1548944159517392910,/world,vicon/target3/target3,0.526809390387,-0.980919809741,1.21182423077,-0.0426108004115,0.000819062635285,0.990540032585,-0.130438079839
1548944159522347276,36176,1548944159522347276,/world,vicon/target3/target3,0.526391501974,-0.980856667762,1.21212937516,-0.0454171783253,-0.000668316193676,0.990455013334,-0.130137234597
1548944159527341537,36177,1548944159527341537,/world,vicon/target3/target3,0.525878548601,-0.980808079955,1.21233067281,-0.0497071239123,-0.00415582846978,0.990370398526,-0.129144897869
1548944159532353921,36178,1548944159532353921,/world,vicon/target3/target3,0.5252283495,-0.980739022378,1.21239218627,-0.0522468092156,-0.00527654041651,0.990164958084,-0.129675690981
1548944159537374696,36179,1548944159537374696,/world,vicon/target3/target3,0.524574690386,-0.98063720071,1.21239756466,-0.0500827924304,-0.00353396924389,0.990401996445,-0.12877542623
1548944159542370800,36180,1548944159542370800,/world,vicon/target3/target3,0.52395619476,-0.980577693144,1.21255075398,-0.0525122419947,-0.00507882010194,0.990664760555,-0.12569805974
1548944159547314770,36181,1548944159547314770,/world,vicon/target3/target3,0.523072611013,-0.980382317822,1.21253071942,-0.0502326584661,-0.00264468177054,0.990379640716,-0.128910251479
1548944159552387203,36182,1548944159552387203,/world,vicon/target3/target3,0.522415333543,-0.980219501069,1.21268537925,-0.0497706017127,-0.00136485177552,0.990147384758,-0.130878496482
1548944159557371171,36183,1548944159557371171,/world,vicon/target3/target3,0.521730585372,-0.980059589062,1.21262329592,-0.0496451352339,-0.00380240270693,0.990229278562,-0.130256969715
1548944159562353981,36184,1548944159562353981,/world,vicon/target3/target3,0.520912437613,-0.98000973831,1.21261232994,-0.0516959293178,-0.00403352647193,0.990306680303,-0.128856278476
1548944159567386171,36185,1548944159567386171,/world,vicon/target3/target3,0.520186844771,-0.979856849073,1.21265577398,-0.0492717651547,-0.0033047777389,0.990336479344,-0.129595637594
1548944159572358015,36186,1548944159572358015,/world,vicon/target3/target3,0.519176735826,-0.979706072012,1.2126444043,-0.0499269868808,-0.0036052453328,0.990447699968,-0.128482106985
1548944159577367244,36187,1548944159577367244,/world,vicon/target3/target3,0.518573616973,-0.979557120614,1.21286193034,-0.048977839474,-0.00354329202497,0.990920165887,-0.125163258026
1548944159582344862,36188,1548944159582344862,/world,vicon/target3/target3,0.517997587453,-0.979519446955,1.21311365094,-0.0498761240677,-0.00292078980181,0.990790787076,-0.125846960553
1548944159587333487,36189,1548944159587333487,/world,vicon/target3/target3,0.516938433978,-0.979471214552,1.21308277228,-0.0495481012993,-0.00250768718308,0.990787730091,-0.126009408634
1548944159592353845,36190,1548944159592353845,/world,vicon/target3/target3,0.515842457989,-0.979315758181,1.2129689428,-0.0496179665495,-0.00170005753548,0.990657422471,-0.127015898625
1548944159597338763,36191,1548944159597338763,/world,vicon/target3/target3,0.515411088232,-0.979342833333,1.2134729995,-0.048828356348,-0.00153961307414,0.990545579835,-0.128190777664
1548944159602457595,36192,1548944159602457595,/world,vicon/target3/target3,0.514053189647,-0.978999736671,1.21328188584,-0.0505148291046,-0.00161289922878,0.990516042162,-0.127763926114
1548944159607539915,36193,1548944159607539915,/world,vicon/target3/target3,0.51304713265,-0.978845508208,1.21324085631,-0.0488589966841,-0.00155503237808,0.990643778081,-0.127417758832
1548944159612543490,36194,1548944159612543490,/world,vicon/target3/target3,0.511733585406,-0.978711511129,1.21326811186,-0.0508965053808,-0.00239598986506,0.990568448972,-0.127192581834
1548944159617526219,36195,1548944159617526219,/world,vicon/target3/target3,0.511005956503,-0.978699566994,1.21368777185,-0.0541734165038,-0.0056711115294,0.990354653581,-0.127399919811
1548944159622500302,36196,1548944159622500302,/world,vicon/target3/target3,0.510150518009,-0.978700577805,1.21387438884,-0.0516718549354,0.000319473770576,0.990122409869,-0.130336222205
1548944159627546644,36197,1548944159627546644,/world,vicon/target3/target3,0.508540881854,-0.978462585387,1.21357074263,-0.0547256742221,-0.00190082565835,0.990172273963,-0.128687044098
1548944159632461976,36198,1548944159632461976,/world,vicon/target3/target3,0.507440515396,-0.978242726621,1.21381664049,-0.0551914902808,-0.00267532170823,0.990070821171,-0.129253669659
1548944159637481822,36199,1548944159637481822,/world,vicon/target3/target3,0.506341589234,-0.978095331114,1.21391831633,-0.0565062658434,-0.00260380194727,0.989622015272,-0.132092880299
1548944159642483158,36200,1548944159642483158,/world,vicon/target3/target3,0.504806798869,-0.977921077064,1.21360116013,-0.0543340605328,-0.00260546894393,0.989849193486,-0.131299640335
1548944159647525030,36201,1548944159647525030,/world,vicon/target3/target3,0.503680139667,-0.977727281885,1.2136864383,-0.0526849024088,-0.000958051419143,0.99009044706,-0.130170234066
1548944159652558535,36202,1548944159652558535,/world,vicon/target3/target3,0.502566071062,-0.977421535255,1.21380227167,-0.0539251517836,-0.000667450554203,0.990053203304,-0.12994724754
1548944159657513068,36203,1548944159657513068,/world,vicon/target3/target3,0.501066833094,-0.97734190932,1.21371626328,-0.0558326319025,-0.0020668494955,0.990249683392,-0.127608815882
1548944159662556104,36204,1548944159662556104,/world,vicon/target3/target3,0.499858459477,-0.9773818257,1.21384221204,-0.0556853673179,-0.000348676149812,0.989653130008,-0.132233507693
1548944159667589073,36205,1548944159667589073,/world,vicon/target3/target3,0.498930543138,-0.977377493964,1.21415544471,-0.0598037712792,-0.000571552228207,0.989447610199,-0.131972000592
1548944159672521046,36206,1548944159672521046,/world,vicon/target3/target3,0.497415320108,-0.977056639609,1.21401751882,-0.0616423570883,-0.00392612096354,0.98968600521,-0.129253303546
1548944159677566307,36207,1548944159677566307,/world,vicon/target3/target3,0.496010795133,-0.976879965745,1.21400906593,-0.061391014311,-0.00192962377385,0.989564407883,-0.130344553265
1548944159682550104,36208,1548944159682550104,/world,vicon/target3/target3,0.495125990888,-0.976890470707,1.21439079877,-0.0617530603146,-0.00248339084165,0.98933104825,-0.131925999255
1548944159687503237,36209,1548944159687503237,/world,vicon/target3/target3,0.493718787389,-0.976684631505,1.2142742779,-0.0642228116253,-0.00305466534064,0.989601197063,-0.128668450908
1548944159692515187,36210,1548944159692515187,/world,vicon/target3/target3,0.491926592256,-0.976355931678,1.21398096328,-0.0625896916603,-0.00114061993698,0.989462404768,-0.13055795278
1548944159697472541,36211,1548944159697472541,/world,vicon/target3/target3,0.490852893233,-0.976219016405,1.21430048247,-0.0645562003731,-0.00294984028287,0.989257701966,-0.131122059686
1548944159702258417,36212,1548944159702258417,/world,vicon/target3/target3,0.48931970919,-0.976050387877,1.21410150871,-0.0616513811821,-0.00372487810265,0.989658050554,-0.129468820398
1548944159707508592,36213,1548944159707508592,/world,vicon/target3/target3,0.487770999645,-0.975934557256,1.21406643639,-0.0621429122825,-0.0035993771664,0.989419945503,-0.13104760348
1548944159712461402,36214,1548944159712461402,/world,vicon/target3/target3,0.486332936699,-0.975838592454,1.21405747891,-0.0613481832319,-0.00152508720193,0.989771695152,-0.128786901507
1548944159717418034,36215,1548944159717418034,/world,vicon/target3/target3,0.484669499224,-0.975595603469,1.21393723064,-0.0601832191759,-0.00241850355642,0.989930351781,-0.128101637743
1548944159722285638,36216,1548944159722285638,/world,vicon/target3/target3,0.483186219475,-0.975554895655,1.21402092745,-0.0619561093003,-0.00254735812904,0.98942209752,-0.131144441081
1548944159727326910,36217,1548944159727326910,/world,vicon/target3/target3,0.481631528507,-0.975458217951,1.2139294391,-0.0607399258555,-0.00062617768971,0.989594718839,-0.130432211334
1548944159732553491,36218,1548944159732553491,/world,vicon/target3/target3,0.479868711851,-0.975252578123,1.21384180992,-0.0623381317109,0.00111925176465,0.989086882436,-0.133490986974
1548944159737519165,36219,1548944159737519165,/world,vicon/target3/target3,0.478335797316,-0.975016447332,1.21374502598,-0.059907420755,0.00141057316003,0.989479327422,-0.131680567382
1548944159742514394,36220,1548944159742514394,/world,vicon/target3/target3,0.476312548744,-0.974817100507,1.21352356948,-0.0602056835982,0.00178010638275,0.989301345503,-0.132871948392
1548944159747510815,36221,1548944159747510815,/world,vicon/target3/target3,0.474956380322,-0.974721896388,1.21359113377,-0.0593734148914,0.0043095384836,0.989377363596,-0.132622237527
1548944159752547563,36222,1548944159752547563,/world,vicon/target3/target3,0.473227255519,-0.974493063568,1.2134440205,-0.055749199235,0.00518305360986,0.989962079799,-0.12976996301
1548944159757536782,36223,1548944159757536782,/world,vicon/target3/target3,0.471710829039,-0.974668613575,1.21370098276,-0.0594051967156,0.00431124591659,0.989679056745,-0.130337256384
1548944159762535433,36224,1548944159762535433,/world,vicon/target3/target3,0.469798002225,-0.974579987853,1.21353993367,-0.0593385161086,0.00619216816262,0.989558259506,-0.131206130205
1548944159767638639,36225,1548944159767638639,/world,vicon/target3/target3,0.467871067318,-0.97428202012,1.21346118932,-0.0610878091243,0.00794964665997,0.989298631675,-0.132262239738
1548944159772558550,36226,1548944159772558550,/world,vicon/target3/target3,0.465931881803,-0.974024429056,1.21325349896,-0.0569348380789,0.00924342197988,0.990008106974,-0.128673740477
1548944159777539366,36227,1548944159777539366,/world,vicon/target3/target3,0.464395051892,-0.974143425087,1.21364529648,-0.0557632994302,0.00986966143668,0.989233552633,-0.134944516616
1548944159782521280,36228,1548944159782521280,/world,vicon/target3/target3,0.46193226456,-0.973739292019,1.21309111807,-0.0566201809595,0.00956052925438,0.98988663062,-0.129719735999
1548944159787546179,36229,1548944159787546179,/world,vicon/target3/target3,0.460326133284,-0.973842024846,1.21363865193,-0.0576596701102,0.00816344572248,0.989740328928,-0.130471460063
1548944159792554105,36230,1548944159792554105,/world,vicon/target3/target3,0.45804299442,-0.973823558621,1.21343072784,-0.0586143372549,0.00981021979164,0.989503962677,-0.131719500846
1548944159797537580,36231,1548944159797537580,/world,vicon/target3/target3,0.456297727814,-0.973698012692,1.21375744427,-0.0603536501845,0.0102148033286,0.988930729862,-0.13516325772
1548944159802550801,36232,1548944159802550801,/world,vicon/target3/target3,0.454295212359,-0.973778783335,1.2138761183,-0.0591428877085,0.0100037621444,0.989473801062,-0.131695256511
1548944159807568570,36233,1548944159807568570,/world,vicon/target3/target3,0.452209851198,-0.97338559566,1.21396309308,-0.0604479908993,0.0127562253224,0.988493449527,-0.138072514839
1548944159812499564,36234,1548944159812499564,/world,vicon/target3/target3,0.449853609664,-0.973473520512,1.21383159515,-0.0576685610979,0.00864307638486,0.989800524682,-0.12997905843
1548944159817472560,36235,1548944159817472560,/world,vicon/target3/target3,0.447726868056,-0.973531598524,1.2140139445,-0.0590425175184,0.0087115438603,0.989212974627,-0.133775113375
1548944159822502571,36236,1548944159822502571,/world,vicon/target3/target3,0.445588514154,-0.973512812414,1.21416230486,-0.0615396558109,0.00754783192692,0.98906366003,-0.133824427531
1548944159827518017,36237,1548944159827518017,/world,vicon/target3/target3,0.443150818575,-0.973352517299,1.21409208926,-0.0609363628001,0.00810749671662,0.989130089628,-0.133576547258
1548944159832549802,36238,1548944159832549802,/world,vicon/target3/target3,0.438821684247,-0.972774922901,1.21283807313,-0.0666804543521,0.0105754949704,0.9879281683,-0.139426719795
1548944159837527496,36239,1548944159837527496,/world,vicon/target3/target3,0.438512891175,-0.973245554867,1.21409077235,-0.0617750034028,0.00711054471798,0.989410656258,-0.13114816961
1548944159842518132,36240,1548944159842518132,/world,vicon/target3/target3,0.436306459938,-0.973353983301,1.21439155152,-0.0627678782216,0.0073163358397,0.988708068702,-0.135878694348
1548944159847512800,36241,1548944159847512800,/world,vicon/target3/target3,0.433985383152,-0.97326317706,1.21444116845,-0.0661250422277,0.00611089389188,0.988605859158,-0.135087345837
1548944159852537355,36242,1548944159852537355,/world,vicon/target3/target3,0.431360229056,-0.97316718046,1.21435545734,-0.0642383030008,0.00786789929934,0.988747248678,-0.134871845912
1548944159857509077,36243,1548944159857509077,/world,vicon/target3/target3,0.429164099405,-0.973083252092,1.2144015913,-0.0609640859999,0.0101190255429,0.988492734307,-0.138069184694
1548944159862521919,36244,1548944159862521919,/world,vicon/target3/target3,0.426588571807,-0.973278392869,1.21464830393,-0.0677233554629,0.00485611418378,0.988862816763,-0.132439778402
1548944159867533841,36245,1548944159867533841,/world,vicon/target3/target3,0.423348642764,-0.973014095761,1.21434626146,-0.0680719310694,0.00892217809637,0.987942715243,-0.138765263434
1548944159872557271,36246,1548944159872557271,/world,vicon/target3/target3,0.421377017129,-0.973133751376,1.21464028612,-0.066473644417,0.00865587068456,0.988049962966,-0.13879337586
1548944159877595797,36247,1548944159877595797,/world,vicon/target3/target3,0.418375334108,-0.972851749587,1.21454944269,-0.0682800297118,0.00659721961216,0.988113587172,-0.137571265464
1548944159882564975,36248,1548944159882564975,/world,vicon/target3/target3,0.415663449745,-0.973328515419,1.21455668573,-0.0678626551554,0.0071368832976,0.987910738477,-0.139198052193
1548944159887525635,36249,1548944159887525635,/world,vicon/target3/target3,0.412831777729,-0.973116715516,1.21457522275,-0.0661217776153,0.00844166680552,0.988135700891,-0.13836359858
1548944159892519689,36250,1548944159892519689,/world,vicon/target3/target3,0.410197762236,-0.973157717453,1.214667516,-0.0679503450265,0.00771024803947,0.987614503222,-0.141212236407
1548944159897521782,36251,1548944159897521782,/world,vicon/target3/target3,0.407460268792,-0.973066916982,1.21486897113,-0.0686465012906,0.00688703625728,0.987592473304,-0.141072085352
1548944159902539911,36252,1548944159902539911,/world,vicon/target3/target3,0.404534908697,-0.973348824954,1.21478103439,-0.06867407189,0.00589286141331,0.987413468995,-0.142350930037
1548944159907539667,36253,1548944159907539667,/world,vicon/target3/target3,0.401694969061,-0.973190845005,1.21475940462,-0.0646669929739,0.00718387119183,0.987883154798,-0.140902251508
1548944159912546476,36254,1548944159912546476,/world,vicon/target3/target3,0.39889830973,-0.973177050253,1.21484866856,-0.065680785862,0.00872565044665,0.987492543143,-0.143067727425
1548944159917438377,36255,1548944159917438377,/world,vicon/target3/target3,0.395658995807,-0.97302164347,1.21481821309,-0.0700643155257,0.00649336686888,0.987286761926,-0.14252605938
1548944159922529056,36256,1548944159922529056,/world,vicon/target3/target3,0.392719851892,-0.973182783681,1.21472070254,-0.0675256737965,0.00754445382256,0.987349550078,-0.143262802416
1548944159927614190,36257,1548944159927614190,/world,vicon/target3/target3,0.389923502546,-0.973196211404,1.214821072,-0.0612620125278,0.00755000998896,0.987991154812,-0.141645477101
1548944159932503407,36258,1548944159932503407,/world,vicon/target3/target3,0.387027899407,-0.973546358093,1.21509295377,-0.0666024055078,0.00730048959952,0.98710484954,-0.145378259881
1548944159937546688,36259,1548944159937546688,/world,vicon/target3/target3,0.383921284428,-0.973474251073,1.21513950309,-0.068244327808,0.00717188255861,0.987142040028,-0.144367131409
1548944159942509408,36260,1548944159942509408,/world,vicon/target3/target3,0.380242221292,-0.973245353938,1.21476056945,-0.0709692160351,0.00652679073655,0.98675767986,-0.145705362339
1548944159947591950,36261,1548944159947591950,/world,vicon/target3/target3,0.377370357673,-0.97329308342,1.21471802174,-0.0627590731756,0.0101345030808,0.987411295432,-0.144836197943
1548944159952458647,36262,1548944159952458647,/world,vicon/target3/target3,0.374431822259,-0.973846593745,1.21511039676,-0.0656276913839,0.00809453143296,0.986986632373,-0.146577188547
1548944159957550657,36263,1548944159957550657,/world,vicon/target3/target3,0.370973405862,-0.973534187959,1.21496272181,-0.0644083636074,0.00777879967906,0.987058544098,-0.14665088986
1548944159962544815,36264,1548944159962544815,/world,vicon/target3/target3,0.367764317708,-0.973728081289,1.21506108401,-0.0700433820268,0.00710983625488,0.986444166711,-0.148227125809
1548944159967566691,36265,1548944159967566691,/world,vicon/target3/target3,0.364448272982,-0.973890490676,1.21515079444,-0.0664534313946,0.00890153131699,0.986132546643,-0.151813387576
1548944159972557295,36266,1548944159972557295,/world,vicon/target3/target3,0.361318161179,-0.974221193039,1.21524365737,-0.0681210237343,0.00742513826927,0.986208297318,-0.150657186179
1548944159977544873,36267,1548944159977544873,/world,vicon/target3/target3,0.35738894308,-0.974014964169,1.2148911002,-0.0687842104653,0.00664187386586,0.985995135178,-0.151783435553
1548944159982575360,36268,1548944159982575360,/world,vicon/target3/target3,0.353833548971,-0.974206489363,1.21461151073,-0.0661636102835,0.00979302425421,0.98579553024,-0.154057281261
1548944159987504932,36269,1548944159987504932,/world,vicon/target3/target3,0.350402075636,-0.974314670191,1.21467160665,-0.0649461722895,0.00837374765631,0.985993078363,-0.153393365163
1548944159992523279,36270,1548944159992523279,/world,vicon/target3/target3,0.34688000901,-0.974458575205,1.21442614682,-0.0663538834432,0.00661443838558,0.985943515611,-0.153195285112
1548944159997487386,36271,1548944159997487386,/world,vicon/target3/target3,0.343592026397,-0.974731638831,1.21471382344,-0.0666380148896,0.00713683905582,0.986053812881,-0.152336202533
1548944160002535228,36272,1548944160002535228,/world,vicon/target3/target3,0.340275590304,-0.974746013528,1.2145874751,-0.0644107402986,0.0078800433988,0.986033205948,-0.153387346996
1548944160007511275,36273,1548944160007511275,/world,vicon/target3/target3,0.336648420084,-0.975032588683,1.21463737226,-0.0686540449871,0.00695859735933,0.985448973197,-0.155333580577
1548944160012569007,36274,1548944160012569007,/world,vicon/target3/target3,0.332995869648,-0.974954010451,1.21438549685,-0.0656514628052,0.00977769366978,0.98564483917,-0.155237022505
1548944160017563372,36275,1548944160017563372,/world,vicon/target3/target3,0.329711891224,-0.975636445418,1.21470788624,-0.0655328500728,0.00995209814218,0.984845928424,-0.160265088434
1548944160022519205,36276,1548944160022519205,/world,vicon/target3/target3,0.325411360703,-0.975297723704,1.21411817487,-0.0656870416414,0.00909826038254,0.985323675448,-0.157288552731
1548944160027536482,36277,1548944160027536482,/world,vicon/target3/target3,0.321848879708,-0.975567997438,1.21407631507,-0.0630617493452,0.0116367017033,0.985337238502,-0.158108599904
1548944160032548657,36278,1548944160032548657,/world,vicon/target3/target3,0.317813561782,-0.975546918173,1.21388537049,-0.064662724915,0.0106616925113,0.985050123395,-0.15931514278
1548944160037568314,36279,1548944160037568314,/world,vicon/target3/target3,0.31413588947,-0.97582284933,1.21378266463,-0.0629218746962,0.0129801914488,0.985001943701,-0.1601359523
1548944160042559079,36280,1548944160042559079,/world,vicon/target3/target3,0.310358900845,-0.976127419207,1.21388883211,-0.0628985169782,0.0145141956363,0.98476603348,-0.161458892572
1548944160047509377,36281,1548944160047509377,/world,vicon/target3/target3,0.306486879539,-0.97618853515,1.2137598233,-0.0668412119662,0.0126208139919,0.984313641376,-0.162787047512
1548944160052527661,36282,1548944160052527661,/world,vicon/target3/target3,0.302552486139,-0.976397082607,1.21361986573,-0.0656270182141,0.0123127243973,0.984655306365,-0.161230949095
1548944160057550594,36283,1548944160057550594,/world,vicon/target3/target3,0.298782256152,-0.976724694692,1.21366605201,-0.0679868794319,0.0119920371428,0.983809030603,-0.165389741445
1548944160062532615,36284,1548944160062532615,/world,vicon/target3/target3,0.294803808789,-0.97689153631,1.21341951402,-0.0678601483397,0.00953629725581,0.984438279658,-0.161818827231
1548944160067530441,36285,1548944160067530441,/world,vicon/target3/target3,0.29095048806,-0.97717162399,1.21341714973,-0.0688583407471,0.00963203332801,0.983948879298,-0.164348275838
1548944160072552807,36286,1548944160072552807,/world,vicon/target3/target3,0.286794593409,-0.977220757518,1.21297850132,-0.068477812562,0.00913520208372,0.984125102455,-0.163478194229
1548944160077549460,36287,1548944160077549460,/world,vicon/target3/target3,0.282971856176,-0.977661834382,1.21294205302,-0.0699278259113,0.00751005892251,0.98398122179,-0.163812860735
1548944160082534082,36288,1548944160082534082,/world,vicon/target3/target3,0.279194576338,-0.978042988217,1.2129426313,-0.0748225451172,0.00469379679081,0.98351909585,-0.164528851916
1548944160087564352,36289,1548944160087564352,/world,vicon/target3/target3,0.275293847139,-0.978298003137,1.21269876966,-0.072553837484,0.00526197326359,0.98378891876,-0.163913439437
1548944160092555590,36290,1548944160092555590,/world,vicon/target3/target3,0.271362440831,-0.978570285026,1.21249950459,-0.0743508748665,0.00266954023528,0.983339319149,-0.165857180663
1548944160097462904,36291,1548944160097462904,/world,vicon/target3/target3,0.267642523166,-0.97892440261,1.21229688206,-0.068921699873,0.00506168883816,0.983977089614,-0.164357128559
1548944160102534251,36292,1548944160102534251,/world,vicon/target3/target3,0.263745565402,-0.979237669801,1.21211317065,-0.0697425838326,0.00556608306765,0.983366923838,-0.16761409195
1548944160107611219,36293,1548944160107611219,/world,vicon/target3/target3,0.2599287443,-0.979667336769,1.21182116747,-0.0631404673511,0.00882419002515,0.983873538949,-0.167117546683
1548944160112538702,36294,1548944160112538702,/world,vicon/target3/target3,0.253835374168,-0.979308496327,1.21042069548,-0.0697603281908,0.00908132611392,0.98314921428,-0.16872654974
1548944160117372017,36295,1548944160117372017,/world,vicon/target3/target3,0.25166550533,-0.980120815738,1.21121248587,-0.0618251995865,0.00878434082096,0.983704350783,-0.168600801609
1548944160122543751,36296,1548944160122543751,/world,vicon/target3/target3,0.247446163194,-0.980232138467,1.21099567852,-0.0671729588213,0.00702859229003,0.983656529515,-0.16690783216
1548944160127524253,36297,1548944160127524253,/world,vicon/target3/target3,0.243283922927,-0.980510403314,1.21065518148,-0.0661158903812,0.00795899001576,0.983824042913,-0.166299717687
1548944160132588714,36298,1548944160132588714,/world,vicon/target3/target3,0.239195093349,-0.980778758926,1.2104552588,-0.0707356024844,0.00721764454579,0.983680758244,-0.165277179337
1548944160137567506,36299,1548944160137567506,/world,vicon/target3/target3,0.234757656631,-0.980864674583,1.20994773863,-0.0689423687413,0.00695980118343,0.983526811076,-0.166953654811
1548944160142537691,36300,1548944160142537691,/world,vicon/target3/target3,0.230425878809,-0.981202602791,1.20958743492,-0.0713519764168,0.00655720042575,0.983632510179,-0.165326898908
1548944160147536115,36301,1548944160147536115,/world,vicon/target3/target3,0.226430009145,-0.98156602963,1.20934633678,-0.0667139165496,0.0111651095127,0.983277275459,-0.169086939866
1548944160152555355,36302,1548944160152555355,/world,vicon/target3/target3,0.222237586591,-0.981917614176,1.20909906831,-0.0644053631784,0.0107607848299,0.983452957092,-0.168986496179
1548944160157547272,36303,1548944160157547272,/world,vicon/target3/target3,0.218306489344,-0.982206729438,1.20916372531,-0.0715011938672,0.00811625829159,0.98308849109,-0.168400487866
1548944160162522325,36304,1548944160162522325,/world,vicon/target3/target3,0.214096306591,-0.982570074577,1.20881350704,-0.0671000099398,0.00864616375689,0.983359165613,-0.168604815835
1548944160167627096,36305,1548944160167627096,/world,vicon/target3/target3,0.209640808359,-0.982769958262,1.20835380785,-0.0648880619726,0.0110225428007,0.983618783952,-0.167815764515
1548944160172518887,36306,1548944160172518887,/world,vicon/target3/target3,0.205596024991,-0.98332564846,1.20820525088,-0.0607303983106,0.0143763668036,0.983128622608,-0.171939670254
1548944160177549595,36307,1548944160177549595,/world,vicon/target3/target3,0.201333351396,-0.98367897739,1.20799267914,-0.0632900101078,0.0137336468919,0.983020385259,-0.171687750667
1548944160182573667,36308,1548944160182573667,/world,vicon/target3/target3,0.196988353617,-0.983848050971,1.2077898987,-0.0693269385245,0.0096824110955,0.982496119467,-0.172630825009
1548944160187525386,36309,1548944160187525386,/world,vicon/target3/target3,0.192684747873,-0.984192790353,1.20749250551,-0.0680144096307,0.0100586844403,0.983026742454,-0.170091994433
1548944160192548768,36310,1548944160192548768,/world,vicon/target3/target3,0.188519605223,-0.984465071872,1.20748076544,-0.0732733709285,0.00681029817158,0.982340969326,-0.172019920169
1548944160197395494,36311,1548944160197395494,/world,vicon/target3/target3,0.184249705819,-0.984865423989,1.20715216563,-0.0706461831734,0.00827040266581,0.982475926987,-0.17228398107
1548944160202550759,36312,1548944160202550759,/world,vicon/target3/target3,0.179790714618,-0.984962498273,1.20686784529,-0.0757285622034,0.00560362114936,0.982303166903,-0.171214113289
1548944160207573469,36313,1548944160207573469,/world,vicon/target3/target3,0.175626270039,-0.985444234293,1.20664016504,-0.0700777531027,0.00933854378713,0.982004268983,-0.175127141868
1548944160212539928,36314,1548944160212539928,/world,vicon/target3/target3,0.171644293179,-0.985799957553,1.20660604438,-0.0715247095403,0.0093629841497,0.982334622884,-0.172670898346
1548944160217579852,36315,1548944160217579852,/world,vicon/target3/target3,0.167469259326,-0.986195993115,1.20641091514,-0.0702244306364,0.00762020654601,0.982098901579,-0.174620185866
1548944160222557633,36316,1548944160222557633,/world,vicon/target3/target3,0.163122172572,-0.986564460918,1.2059595182,-0.0645893353976,0.0125164736805,0.9828272265,-0.172401271716
1548944160227551353,36317,1548944160227551353,/world,vicon/target3/target3,0.158724430639,-0.986872984243,1.20562198629,-0.0610732951925,0.0142944180352,0.98239013409,-0.175998143941
1548944160232572437,36318,1548944160232572437,/world,vicon/target3/target3,0.154271883225,-0.987238445358,1.20523685392,-0.0621901973241,0.0136877333801,0.98222219084,-0.176591599837
1548944160237534711,36319,1548944160237534711,/world,vicon/target3/target3,0.14993963549,-0.987500249,1.2051163956,-0.0681143903099,0.0099354306743,0.982036969597,-0.175684681732
1548944160242534611,36320,1548944160242534611,/world,vicon/target3/target3,0.145952486526,-0.988003602339,1.20505836997,-0.0693667434222,0.00975488102344,0.981567513658,-0.177815391164
1548944160247540930,36321,1548944160247540930,/world,vicon/target3/target3,0.141433785331,-0.988167931956,1.20485435733,-0.0725902075943,0.00871572630923,0.98131169638,-0.177994529198
1548944160252508973,36322,1548944160252508973,/world,vicon/target3/target3,0.137076527759,-0.988516122738,1.20454346416,-0.0729530593268,0.00813541925992,0.981004653881,-0.179559280331
1548944160257509903,36323,1548944160257509903,/world,vicon/target3/target3,0.132803749887,-0.988852879791,1.20434507095,-0.0730037798568,0.0099206067857,0.981468033957,-0.176896941774
1548944160262526619,36324,1548944160262526619,/world,vicon/target3/target3,0.128483931972,-0.98911379647,1.20400237804,-0.0717566973509,0.0106354035407,0.981584478581,-0.176719483887
1548944160267530988,36325,1548944160267530988,/world,vicon/target3/target3,0.124292265289,-0.989460111357,1.20381638025,-0.0709975022617,0.012458732777,0.981559870253,-0.177043372537
1548944160272524305,36326,1548944160272524305,/world,vicon/target3/target3,0.119908792534,-0.989801617116,1.2034345431,-0.064795451289,0.016641050687,0.98158308577,-0.178939293212
1548944160277446860,36327,1548944160277446860,/world,vicon/target3/target3,0.1155448483,-0.990007619835,1.20297614044,-0.0604454483412,0.0202117539508,0.982041506096,-0.177573401952
1548944160282384860,36328,1548944160282384860,/world,vicon/target3/target3,0.110549106369,-0.989607366883,1.20264218041,-0.0580851974724,0.0168676131625,0.983522258128,-0.170368897478
1548944160287443540,36329,1548944160287443540,/world,vicon/target3/target3,0.10693228921,-0.990741388099,1.20264017092,-0.0632793825621,0.0171457631262,0.981468953435,-0.180056757699
1548944160292385036,36330,1548944160292385036,/world,vicon/target3/target3,0.102467995423,-0.990838669967,1.20263098009,-0.0734588722681,0.0126540744473,0.981003601671,-0.179096627531
1548944160297448246,36331,1548944160297448246,/world,vicon/target3/target3,0.0980965670283,-0.991161374135,1.20234274771,-0.07369634649,0.00967213639758,0.980787439435,-0.180364344976
1548944160302509331,36332,1548944160302509331,/world,vicon/target3/target3,0.09383772645,-0.991623549728,1.20235173388,-0.0746686150573,0.00996910368558,0.980740449304,-0.180203734688
1548944160307251318,36333,1548944160307251318,/world,vicon/target3/target3,0.0891692147139,-0.991750888543,1.20191820828,-0.0754028683612,0.0104803831416,0.979924903889,-0.184260011261
1548944160312581593,36334,1548944160312581593,/world,vicon/target3/target3,0.0848934630171,-0.992075249626,1.20169672551,-0.0750995106672,0.0100247240966,0.98030369689,-0.182384841113
1548944160317402315,36335,1548944160317402315,/world,vicon/target3/target3,0.080670322076,-0.992488440121,1.20150707604,-0.0728158672656,0.0129916095553,0.979813174197,-0.185728864816
1548944160322527828,36336,1548944160322527828,/world,vicon/target3/target3,0.0760335837724,-0.992641589198,1.20095083329,-0.0691900651126,0.0170997753945,0.98025181892,-0.184463286522
1548944160327615300,36337,1548944160327615300,/world,vicon/target3/target3,0.0715161810119,-0.99292084762,1.20050785953,-0.0642454241301,0.0186836889102,0.980320891858,-0.185726665382
1548944160332522873,36338,1548944160332522873,/world,vicon/target3/target3,0.0661387163554,-0.992487631572,1.20005618322,-0.0614295138499,0.0177549152866,0.981870981232,-0.178439216615
1548944160337510439,36339,1548944160337510439,/world,vicon/target3/target3,0.0619467572817,-0.992635394144,1.2001827659,-0.073761574325,0.0110651614649,0.981225447858,-0.177857844447
1548944160342526317,36340,1548944160342526317,/world,vicon/target3/target3,0.0579786249876,-0.993508476667,1.19984103588,-0.0781156267908,0.0109542730599,0.979247435735,-0.186688008076
1548944160347466904,36341,1548944160347466904,/world,vicon/target3/target3,0.0534528222238,-0.993752601939,1.19938941015,-0.0775492058506,0.0121859784187,0.978848925065,-0.188924335385
1548944160352501734,36342,1548944160352501734,/world,vicon/target3/target3,0.0477915049239,-0.992768053375,1.19874524669,-0.0713238393725,0.0110681705634,0.981829249251,-0.175504218903
1548944160357497181,36343,1548944160357497181,/world,vicon/target3/target3,0.0437530304505,-0.993478143826,1.19850962202,-0.070193992172,0.0209699551683,0.980340541395,-0.183208862614
1548944160362532782,36344,1548944160362532782,/world,vicon/target3/target3,0.039850146452,-0.994334069394,1.19819376428,-0.0773945362289,0.0197542626823,0.977869111831,-0.193369736503
1548944160367526533,36345,1548944160367526533,/world,vicon/target3/target3,0.0342473551419,-0.993358646232,1.19771499544,-0.0751337515123,0.0251107792504,0.979286029766,-0.186341729234
1548944160372517128,36346,1548944160372517128,/world,vicon/target3/target3,0.0298939793365,-0.993880096269,1.19681760245,-0.0654335216635,0.0249537674959,0.9804680706,-0.183788264764
1548944160377540542,36347,1548944160377540542,/world,vicon/target3/target3,0.0249706696098,-0.993491478221,1.19672156493,-0.0729521572308,0.0293842684062,0.978727279035,-0.189492640487
1548944160382532881,36348,1548944160382532881,/world,vicon/target3/target3,0.0208101711049,-0.993985194275,1.19617545639,-0.0750636386649,0.0218433693081,0.97965297846,-0.184846853266
1548944160387503255,36349,1548944160387503255,/world,vicon/target3/target3,0.0160562901911,-0.994204779317,1.19578875882,-0.0750816748071,0.0238654254304,0.979585846686,-0.184945269068
1548944160392482472,36350,1548944160392482472,/world,vicon/target3/target3,0.011264471196,-0.993885256537,1.19515017019,-0.0745092404736,0.0210528087131,0.980390494643,-0.181217080714
1548944160397485473,36351,1548944160397485473,/world,vicon/target3/target3,0.00666518196374,-0.993760925779,1.19483407147,-0.0746326700833,0.0399615827948,0.976815677087,-0.196632066191
1548944160402514792,36352,1548944160402514792,/world,vicon/target3/target3,0.00229329159228,-0.994326823298,1.19415676533,-0.069684790761,0.0297491224208,0.979619041825,-0.186025677111
1548944160407491095,36353,1548944160407491095,/world,vicon/target3/target3,-0.00252394234763,-0.993820547233,1.19389738201,-0.0778441826137,0.0315214084526,0.977353876956,-0.194232034539
1548944160412500454,36354,1548944160412500454,/world,vicon/target3/target3,-0.00689822514983,-0.994560406573,1.19309760936,-0.0693195647371,0.0297205170004,0.978954298276,-0.189631143803
1548944160417469921,36355,1548944160417469921,/world,vicon/target3/target3,-0.0114617161234,-0.994485064835,1.19277368807,-0.0733776238981,0.0298956243711,0.978800383335,-0.188869758133
1548944160422520366,36356,1548944160422520366,/world,vicon/target3/target3,-0.0179352456913,-0.99387912831,1.19221388666,-0.0575053952757,0.0228820581006,0.980520438884,-0.186411399498
1548944160427550581,36357,1548944160427550581,/world,vicon/target3/target3,-0.0214516020934,-0.99385027894,1.19182720625,-0.0675126188203,0.0318899600277,0.980180442588,-0.183497620467
1548944160432519919,36358,1548944160432519919,/world,vicon/target3/target3,-0.0262285219636,-0.994063208616,1.19136537199,-0.0668923231362,0.0316754538732,0.979716844029,-0.186217583091
1548944160437530957,36359,1548944160437530957,/world,vicon/target3/target3,-0.0306870932354,-0.994195432734,1.19108485298,-0.0746614435562,0.0403805880746,0.97676831332,-0.196770777928
1548944160442493368,36360,1548944160442493368,/world,vicon/target3/target3,-0.0351856869769,-0.994593448673,1.19016639019,-0.0717679169138,0.0343121480386,0.977837242955,-0.193665611014
1548944160447551849,36361,1548944160447551849,/world,vicon/target3/target3,-0.0401798029905,-0.994496301393,1.18990420221,-0.0761319403299,0.0396530507954,0.975685183377,-0.201668009764
1548944160452530063,36362,1548944160452530063,/world,vicon/target3/target3,-0.0445734138355,-0.994675787527,1.18931505655,-0.0727935518789,0.0372157245552,0.976575140425,-0.199040407339
1548944160457504888,36363,1548944160457504888,/world,vicon/target3/target3,-0.0498163626089,-0.992950775663,1.18931811186,-0.0892502452103,0.0326954119058,0.973059787467,-0.210047741678
1548944160462525780,36364,1548944160462525780,/world,vicon/target3/target3,-0.0542912404385,-0.994059979609,1.18850940926,-0.074647612774,0.0474457856033,0.974249722075,-0.207398433872
1548944160467585218,36365,1548944160467585218,/world,vicon/target3/target3,-0.0588155301098,-0.994519627271,1.18780366318,-0.0703287617926,0.0383915533626,0.976322217577,-0.200935017758
1548944160472536732,36366,1548944160472536732,/world,vicon/target3/target3,-0.0641334081464,-0.99330224345,1.18766392404,-0.092700397784,0.0273669427754,0.972580893965,-0.211527991972
1548944160477500403,36367,1548944160477500403,/world,vicon/target3/target3,-0.0689336664363,-0.992860172904,1.18740111747,-0.0909332493444,0.0299749056892,0.972284369605,-0.21329733663
1548944160482534899,36368,1548944160482534899,/world,vicon/target3/target3,-0.0734662065185,-0.992709266774,1.18671836109,-0.0861252303347,0.0321480502946,0.973219164262,-0.210697427311
1548944160487555193,36369,1548944160487555193,/world,vicon/target3/target3,-0.078447345094,-0.992590851782,1.18635814491,-0.0892624656054,0.039046670931,0.97151082511,-0.216042325522
1548944160492512994,36370,1548944160492512994,/world,vicon/target3/target3,-0.0825517830293,-0.993700758325,1.18517822483,-0.0757761361506,0.0346566440909,0.975977165047,-0.201309382585
1548944160497513100,36371,1548944160497513100,/world,vicon/target3/target3,-0.0866692338489,-0.993692366026,1.18444832517,-0.0771246510665,0.0318288072362,0.975140866923,-0.205277872371
1548944160502491218,36372,1548944160502491218,/world,vicon/target3/target3,-0.0919877683057,-0.992222049919,1.18443004322,-0.0858517956405,0.0439330933058,0.971227580733,-0.217752930915
1548944160507511796,36373,1548944160507511796,/world,vicon/target3/target3,-0.0969114735843,-0.99208331192,1.18395160223,-0.078489967489,0.0388406216569,0.972501061987,-0.215806430735
1548944160512500680,36374,1548944160512500680,/world,vicon/target3/target3,-0.101666405075,-0.991888978864,1.18342468106,-0.0748210842159,0.0491396143445,0.972080293227,-0.216903220765
1548944160517481683,36375,1548944160517481683,/world,vicon/target3/target3,-0.106076508842,-0.991924958168,1.18292250775,-0.0792688402188,0.0519664015822,0.971061941622,-0.219213707622
1548944160522519144,36376,1548944160522519144,/world,vicon/target3/target3,-0.110798541956,-0.991047380557,1.18240968561,-0.0851830129373,0.0507877862582,0.968298926589,-0.229263263171
1548944160527597771,36377,1548944160527597771,/world,vicon/target3/target3,-0.11552631607,-0.991269368664,1.18173913845,-0.0796064850486,0.0528010369015,0.96917163937,-0.227114930117
1548944160532520376,36378,1548944160532520376,/world,vicon/target3/target3,-0.120252973799,-0.991068364648,1.18143669027,-0.0774707618457,0.0583001413379,0.969347979313,-0.225751787546
1548944160537559698,36379,1548944160537559698,/world,vicon/target3/target3,-0.125261064219,-0.99099261592,1.18092732103,-0.0771836959997,0.0534931625561,0.969335402889,-0.227090368218
1548944160542519522,36380,1548944160542519522,/world,vicon/target3/target3,-0.129732521563,-0.99056114123,1.18061357816,-0.0842540064429,0.0544355985366,0.966691152347,-0.235470261359
1548944160547544787,36381,1548944160547544787,/world,vicon/target3/target3,-0.134463353519,-0.990679204984,1.17990252497,-0.0770414333902,0.0674114781962,0.966377333283,-0.235871066188
1548944160552513076,36382,1548944160552513076,/world,vicon/target3/target3,-0.139295037739,-0.990464056233,1.17942697722,-0.0765099158015,0.0647758757008,0.966827391022,-0.234936405609
1548944160557449963,36383,1548944160557449963,/world,vicon/target3/target3,-0.143915582016,-0.990130336881,1.17932998529,-0.0773929943778,0.0690633551143,0.965340602203,-0.239495509643
1548944160562553527,36384,1548944160562553527,/world,vicon/target3/target3,-0.148777438449,-0.98985697287,1.17883010496,-0.0788892765557,0.0656129751138,0.96569837474,-0.238533160305
1548944160567517340,36385,1548944160567517340,/world,vicon/target3/target3,-0.153351644938,-0.989836991479,1.17867416552,-0.0869469308192,0.0580938645824,0.963840414606,-0.245106077632
1548944160572480341,36386,1548944160572480341,/world,vicon/target3/target3,-0.158035649365,-0.989894591611,1.17815716565,-0.0830349631804,0.0735794541532,0.962447782785,-0.247761022416
1548944160577524175,36387,1548944160577524175,/world,vicon/target3/target3,-0.162771994106,-0.989493750919,1.17773112396,-0.0782407898008,0.0619363237065,0.965083769699,-0.242189157646
1548944160582522523,36388,1548944160582522523,/world,vicon/target3/target3,-0.167575585558,-0.989204267664,1.17758409999,-0.083565279387,0.0612207711062,0.964754965592,-0.241902289432
1548944160587593885,36389,1548944160587593885,/world,vicon/target3/target3,-0.17228157181,-0.989024356215,1.17718739119,-0.0798214722115,0.0632486939532,0.964310432479,-0.244404429379
1548944160592509040,36390,1548944160592509040,/world,vicon/target3/target3,-0.176707818342,-0.988932940968,1.17665408832,-0.0874897696093,0.0493984533258,0.963079729563,-0.249765425004
1548944160597480002,36391,1548944160597480002,/world,vicon/target3/target3,-0.181389184501,-0.988864525809,1.1762223838,-0.0825595638885,0.0580707688572,0.963874492849,-0.246490702158
1548944160602509481,36392,1548944160602509481,/world,vicon/target3/target3,-0.186192304262,-0.98845091207,1.17585062512,-0.0883905876004,0.0487492218653,0.962086030027,-0.253379336605
1548944160607582159,36393,1548944160607582159,/world,vicon/target3/target3,-0.190563568534,-0.988189190378,1.1755244451,-0.093071671177,0.0482939970524,0.96175401871,-0.253050511497
1548944160612505072,36394,1548944160612505072,/world,vicon/target3/target3,-0.194882697781,-0.987749156967,1.17492086174,-0.0884083278745,0.0485373314433,0.963191451973,-0.249179296622
1548944160617487161,36395,1548944160617487161,/world,vicon/target3/target3,-0.199203949115,-0.987633179725,1.17435731438,-0.085733598755,0.0477535109288,0.964487162052,-0.245222075831
1548944160622526912,36396,1548944160622526912,/world,vicon/target3/target3,-0.203568566575,-0.987427043049,1.17389373961,-0.0873781903165,0.0475021301701,0.963129039308,-0.249982105615
1548944160627545053,36397,1548944160627545053,/world,vicon/target3/target3,-0.208132057424,-0.986983565897,1.17374834856,-0.0885137752749,0.0490508518936,0.962030835543,-0.253487666326
1548944160632538674,36398,1548944160632538674,/world,vicon/target3/target3,-0.212426552691,-0.986652882584,1.17327889877,-0.0983296344901,0.0425876625979,0.961165964372,-0.254317838359
1548944160637515588,36399,1548944160637515588,/world,vicon/target3/target3,-0.21704243246,-0.98651984661,1.17272666435,-0.0906987022088,0.0407349200372,0.96212002337,-0.253849310298
1548944160642541829,36400,1548944160642541829,/world,vicon/target3/target3,-0.221416327145,-0.986414282692,1.17237574229,-0.0875483556208,0.0436355515761,0.962746238648,-0.252093046384
1548944160647515654,36401,1548944160647515654,/world,vicon/target3/target3,-0.225628265036,-0.985993504297,1.17176020703,-0.0894061646487,0.0421079547361,0.961520664635,-0.256342484482
1548944160652568379,36402,1548944160652568379,/world,vicon/target3/target3,-0.230171472644,-0.985358599457,1.17162565828,-0.0865739930571,0.0488718510008,0.960322846466,-0.260569600034
1548944160657510783,36403,1548944160657510783,/world,vicon/target3/target3,-0.234512545713,-0.985435291621,1.17082780822,-0.0939962225882,0.0362147849575,0.960674690409,-0.258761161493
1548944160662517684,36404,1548944160662517684,/world,vicon/target3/target3,-0.239191631712,-0.9855392505,1.17042588368,-0.089017963194,0.0381087181992,0.960923902693,-0.259323699379
1548944160667517696,36405,1548944160667517696,/world,vicon/target3/target3,-0.243404314284,-0.985033632999,1.17004243044,-0.0869226880575,0.0356264621696,0.960891360726,-0.260505267464
1548944160672519747,36406,1548944160672519747,/world,vicon/target3/target3,-0.247770151753,-0.98477087939,1.16976601811,-0.0890475839071,0.0374077394119,0.959797547235,-0.263552380287
1548944160677539134,36407,1548944160677539134,/world,vicon/target3/target3,-0.252250613511,-0.984450927978,1.16929198721,-0.0834582996756,0.0436907410217,0.960588218963,-0.261526489967
1548944160682573431,36408,1548944160682573431,/world,vicon/target3/target3,-0.256633751647,-0.98441308004,1.16848947651,-0.0894397746671,0.0355168796514,0.95927212494,-0.265586272762
1548944160687534264,36409,1548944160687534264,/world,vicon/target3/target3,-0.260914800186,-0.984205136474,1.16806507612,-0.0871877790045,0.0346003268741,0.959272980763,-0.266451603392
1548944160692547298,36410,1548944160692547298,/world,vicon/target3/target3,-0.265263343598,-0.983605904765,1.16766198172,-0.0838203376471,0.0325858918312,0.959253623026,-0.267852193125
1548944160697520369,36411,1548944160697520369,/world,vicon/target3/target3,-0.2696342006,-0.983543712479,1.16725118903,-0.080644557449,0.0306174692222,0.958985891634,-0.270009417575
1548944160702520270,36412,1548944160702520270,/world,vicon/target3/target3,-0.274152582881,-0.983251258577,1.16685882854,-0.0751479003886,0.0408245569503,0.95931686969,-0.269067449063
1548944160707564265,36413,1548944160707564265,/world,vicon/target3/target3,-0.278132501085,-0.983147053212,1.16609071376,-0.0796092807812,0.0531310027031,0.955714216619,-0.278298032903
1548944160712503558,36414,1548944160712503558,/world,vicon/target3/target3,-0.282031669807,-0.982869514216,1.16561522576,-0.0751273308744,0.0493244222976,0.956539489734,-0.277407984923
1548944160717525484,36415,1548944160717525484,/world,vicon/target3/target3,-0.286013127073,-0.982340800199,1.16499711824,-0.0759876010961,0.0462481611815,0.956750822961,-0.276974466025
1548944160722440424,36416,1548944160722440424,/world,vicon/target3/target3,-0.29001212457,-0.982039675501,1.16457541169,-0.0740729944561,0.0487565596813,0.956915109461,-0.276494959567
1548944160727520123,36417,1548944160727520123,/world,vicon/target3/target3,-0.293945247389,-0.981703360479,1.1638287217,-0.0669200071599,0.0456188955194,0.958560278594,-0.273135170411
1548944160732513879,36418,1548944160732513879,/world,vicon/target3/target3,-0.298233726095,-0.981484006706,1.16358777621,-0.0608067571359,0.036933555998,0.960349708514,-0.269567965615
1548944160737516507,36419,1548944160737516507,/world,vicon/target3/target3,-0.301784746523,-0.980999073739,1.16285952672,-0.0646130929667,0.0393526948844,0.959834649233,-0.270173943515
1548944160742511312,36420,1548944160742511312,/world,vicon/target3/target3,-0.305597599577,-0.980465810477,1.16265067881,-0.0667138340648,0.0366429943854,0.959153964072,-0.272452249966
1548944160747488815,36421,1548944160747488815,/world,vicon/target3/target3,-0.309323754589,-0.980055857313,1.16212473739,-0.064585862103,0.0350974824759,0.959350129989,-0.272477817868
1548944160752492270,36422,1548944160752492270,/world,vicon/target3/target3,-0.313022009011,-0.979672418186,1.16167196221,-0.0622916712213,0.0350592343236,0.959795566795,-0.271446252037
1548944160757580903,36423,1548944160757580903,/world,vicon/target3/target3,-0.316736176972,-0.979370946333,1.16097910662,-0.0678923500342,0.0289206564679,0.95944103034,-0.272079278404
1548944160762488249,36424,1548944160762488249,/world,vicon/target3/target3,-0.320385667492,-0.97910202552,1.16013477936,-0.0629315704071,0.0299062242315,0.960996194475,-0.267640709538
1548944160767505864,36425,1548944160767505864,/world,vicon/target3/target3,-0.324014880256,-0.978761319524,1.15943252009,-0.0640938524447,0.0346104883609,0.960614981839,-0.268165897981
1548944160772459088,36426,1548944160772459088,/world,vicon/target3/target3,-0.327745623593,-0.978260221639,1.15919194721,-0.064124438977,0.0338528896992,0.960403129759,-0.269012762772
1548944160777508694,36427,1548944160777508694,/world,vicon/target3/target3,-0.33163878655,-0.97817710497,1.15851191152,-0.0565740671176,0.0337608423315,0.961732563642,-0.265951229523
1548944160782537194,36428,1548944160782537194,/world,vicon/target3/target3,-0.335429638919,-0.97792143252,1.15772431007,-0.0592151033159,0.0302746179232,0.961647129175,-0.266104900365
1548944160787508193,36429,1548944160787508193,/world,vicon/target3/target3,-0.33948749485,-0.97734884598,1.15789545759,-0.054281164861,0.0380926023526,0.961542681191,-0.266529887696
1548944160792574834,36430,1548944160792574834,/world,vicon/target3/target3,-0.343312629163,-0.977099258842,1.15723963966,-0.0573447168564,0.0320727823535,0.960123968141,-0.271744155195
1548944160797529836,36431,1548944160797529836,/world,vicon/target3/target3,-0.346975987934,-0.976997169132,1.15657779516,-0.0544576821731,0.0372761807748,0.960433235018,-0.270578728418
1548944160802516953,36432,1548944160802516953,/world,vicon/target3/target3,-0.350677996703,-0.976826079211,1.1559667405,-0.0545402019612,0.0307023094718,0.960094335331,-0.272583201663
1548944160807525527,36433,1548944160807525527,/world,vicon/target3/target3,-0.354568858949,-0.976215021074,1.15601457826,-0.0599782705202,0.0286252881893,0.959780557446,-0.272771848785
1548944160812530934,36434,1548944160812530934,/world,vicon/target3/target3,-0.358160152701,-0.976034275607,1.15526956299,-0.0579466953904,0.0301832176791,0.960261164362,-0.271347839649
1548944160817528469,36435,1548944160817528469,/world,vicon/target3/target3,-0.362086660584,-0.975483115787,1.1549103051,-0.0642359384163,0.0219501304898,0.957961814955,-0.278749165156
1548944160822487457,36436,1548944160822487457,/world,vicon/target3/target3,-0.365723711144,-0.975182198914,1.15457172934,-0.0563248324315,0.0315966381288,0.96029286218,-0.271416256986
1548944160827553241,36437,1548944160827553241,/world,vicon/target3/target3,-0.369565643179,-0.974865510877,1.15397875851,-0.061348401507,0.0199501719003,0.959339777682,-0.274782741873
1548944160832530152,36438,1548944160832530152,/world,vicon/target3/target3,-0.373303871066,-0.974540455219,1.15377571683,-0.058057036663,0.0294728809375,0.959248185076,-0.274961177646
1548944160837490947,36439,1548944160837490947,/world,vicon/target3/target3,-0.37696048855,-0.974247321797,1.15290879443,-0.0562932719924,0.0252644728723,0.959892182825,-0.273495468499
1548944160842458809,36440,1548944160842458809,/world,vicon/target3/target3,-0.380739829265,-0.97351864219,1.1528227522,-0.0520651963943,0.0407272574021,0.958194377505,-0.278377514799
1548944160847476286,36441,1548944160847476286,/world,vicon/target3/target3,-0.384244266104,-0.973533505711,1.15231976843,-0.0571692225321,0.038097518233,0.957887775343,-0.278803280018
1548944160852563800,36442,1548944160852563800,/world,vicon/target3/target3,-0.388030600821,-0.973419039725,1.15170271334,-0.0518894424843,0.0328610907992,0.958583588351,-0.278109939798
1548944160857526583,36443,1548944160857526583,/world,vicon/target3/target3,-0.391459036478,-0.972864456711,1.15096030207,-0.0570209784635,0.0309449626164,0.958335015237,-0.278181623899
1548944160862462531,36444,1548944160862462531,/world,vicon/target3/target3,-0.395227010429,-0.9728182976,1.15038891153,-0.0521294888081,0.0211512959095,0.959708010212,-0.275310141863
1548944160867548430,36445,1548944160867548430,/world,vicon/target3/target3,-0.398992840849,-0.972098363553,1.15010899987,-0.058877233127,0.0276113710957,0.957568315458,-0.280773939026
1548944160872513861,36446,1548944160872513861,/world,vicon/target3/target3,-0.402619880795,-0.971950667576,1.14939701852,-0.0564644527967,0.0255466290568,0.957303474772,-0.282363582114
1548944160877476830,36447,1548944160877476830,/world,vicon/target3/target3,-0.406425582474,-0.971153248724,1.14929240363,-0.05755216557,0.0334879476033,0.955562794195,-0.287169030284
1548944160882525480,36448,1548944160882525480,/world,vicon/target3/target3,-0.410103305424,-0.971023134999,1.14892311984,-0.0599509943376,0.0323855298259,0.956393087062,-0.284023447546
1548944160887429881,36449,1548944160887429881,/world,vicon/target3/target3,-0.413908471001,-0.970556459809,1.14862559241,-0.0608790244619,0.0246358645878,0.956091910281,-0.285613510976
1548944160892487841,36450,1548944160892487841,/world,vicon/target3/target3,-0.417653533716,-0.970205678695,1.14847564759,-0.0567340989962,0.0334746354865,0.956280994038,-0.284933941873
1548944160897522627,36451,1548944160897522627,/world,vicon/target3/target3,-0.42131393834,-0.97043143762,1.147435643,-0.0512336043606,0.0221749295292,0.957820859187,-0.281891099525
1548944160902541190,36452,1548944160902541190,/world,vicon/target3/target3,-0.425014456255,-0.970184437367,1.1469076097,-0.05204331965,0.0257065797572,0.957363292517,-0.282995036666
1548944160907349170,36453,1548944160907349170,/world,vicon/target3/target3,-0.428664081736,-0.969724413185,1.14644097965,-0.0534099051101,0.0213183655839,0.956863941119,-0.284788180076
1548944160912474037,36454,1548944160912474037,/world,vicon/target3/target3,-0.432499351936,-0.968766841833,1.14645434144,-0.0570131107679,0.0223182615874,0.954823605189,-0.290797667416
1548944160917450364,36455,1548944160917450364,/world,vicon/target3/target3,-0.436126467767,-0.968737985711,1.14602557504,-0.0573886454221,0.0211712658135,0.954747274021,-0.291060068764
1548944160922521772,36456,1548944160922521772,/world,vicon/target3/target3,-0.439884630689,-0.968665942846,1.14552490451,-0.0506109507266,0.0155979727308,0.955666400175,-0.289649730693
1548944160927517721,36457,1548944160927517721,/world,vicon/target3/target3,-0.443516514603,-0.968462311277,1.14507427938,-0.057354428936,0.0236367757893,0.953725044531,-0.294211338576
1548944160932556281,36458,1548944160932556281,/world,vicon/target3/target3,-0.447276801658,-0.968425203851,1.14429495362,-0.0507533950006,0.0204681144303,0.955652897309,-0.289366012263
1548944160937480600,36459,1548944160937480600,/world,vicon/target3/target3,-0.451050034365,-0.968157452853,1.14398690242,-0.0525909378418,0.0186633755052,0.954272327343,-0.293683838403
1548944160942482049,36460,1548944160942482049,/world,vicon/target3/target3,-0.454713584995,-0.967638071509,1.14347070708,-0.0532846164229,0.0183183592624,0.954597075391,-0.292522838461
1548944160947575370,36461,1548944160947575370,/world,vicon/target3/target3,-0.458350829106,-0.967310858036,1.14276784655,-0.0579000909747,0.0115674066138,0.954098518763,-0.293615038891
1548944160952512044,36462,1548944160952512044,/world,vicon/target3/target3,-0.462196144415,-0.967348507503,1.14238576364,-0.0593887897743,0.00721619755957,0.952855893738,-0.297466878678
1548944160957473555,36463,1548944160957473555,/world,vicon/target3/target3,-0.465829580185,-0.967057072289,1.14190521314,-0.0482515248658,0.0170540336805,0.954124371663,-0.295004463835
1548944160962546077,36464,1548944160962546077,/world,vicon/target3/target3,-0.469429442439,-0.966657178924,1.1414537438,-0.0529925613633,0.0167515221002,0.952786134164,-0.298512575098
1548944160967528362,36465,1548944160967528362,/world,vicon/target3/target3,-0.47312859209,-0.96584596723,1.14134731584,-0.0505830108358,0.0184424568808,0.952777565091,-0.298858070425
1548944160972509074,36466,1548944160972509074,/world,vicon/target3/target3,-0.476473672436,-0.965682148649,1.14069208436,-0.0506685082762,0.0250530685705,0.952430838791,-0.299467098934
1548944160977428539,36467,1548944160977428539,/world,vicon/target3/target3,-0.480258988031,-0.965580825342,1.1403198038,-0.0589928135407,0.0253808791512,0.950575442814,-0.303779503001
1548944160982500265,36468,1548944160982500265,/world,vicon/target3/target3,-0.483749181656,-0.96564525279,1.13958669167,-0.0450095642385,0.0312260384517,0.953387500711,-0.296734472446
1548944160987500822,36469,1548944160987500822,/world,vicon/target3/target3,-0.487393280967,-0.965579637,1.13930533219,-0.0543710154024,0.01900150684,0.951658275097,-0.3017105614
1548944160992526448,36470,1548944160992526448,/world,vicon/target3/target3,-0.490982626007,-0.965217113917,1.139102085,-0.0446138293974,0.0263486380389,0.953077823421,-0.298258307516
1548944160997500303,36471,1548944160997500303,/world,vicon/target3/target3,-0.494506348552,-0.964758843563,1.13914696663,-0.0504761287845,0.0266266188236,0.950767989033,-0.304603700936
1548944161002513187,36472,1548944161002513187,/world,vicon/target3/target3,-0.498053833403,-0.964479343958,1.13890635367,-0.0467848409991,0.0344036138157,0.950936067924,-0.303888408353
1548944161007505402,36473,1548944161007505402,/world,vicon/target3/target3,-0.501409518767,-0.964503688543,1.13854007983,-0.0491320556942,0.0273504258908,0.950359924178,-0.306029426401
1548944161012503444,36474,1548944161012503444,/world,vicon/target3/target3,-0.504799206377,-0.964000855002,1.13831540561,-0.0503271354628,0.0235013297488,0.950194151967,-0.306669105885
1548944161017536283,36475,1548944161017536283,/world,vicon/target3/target3,-0.508107408185,-0.964259538999,1.13761367076,-0.0495258661375,0.0175330525703,0.951578646086,-0.302882586102
1548944161022523913,36476,1548944161022523913,/world,vicon/target3/target3,-0.511745521392,-0.963674214115,1.13789404845,-0.0488904333236,0.0164513725774,0.950253863042,-0.307175314183
1548944161027513528,36477,1548944161027513528,/world,vicon/target3/target3,-0.514908803306,-0.963897797505,1.13733619829,-0.0426053063839,0.0144429287834,0.952091221263,-0.302487183314
1548944161032497542,36478,1548944161032497542,/world,vicon/target3/target3,-0.518377648412,-0.963292751582,1.13737788366,-0.0519376685078,0.0132270412561,0.949457256937,-0.309286988441
1548944161037523803,36479,1548944161037523803,/world,vicon/target3/target3,-0.521573146385,-0.963172430893,1.13693954384,-0.05200340463,0.012461685737,0.949864566538,-0.308054634004
1548944161042529466,36480,1548944161042529466,/world,vicon/target3/target3,-0.525063718458,-0.963030419901,1.1366724877,-0.0546441391005,0.00546746463939,0.949017458157,-0.310402946194
1548944161047489335,36481,1548944161047489335,/world,vicon/target3/target3,-0.528450788811,-0.962848645623,1.13672684054,-0.0494831666463,0.0114815975127,0.949942053,-0.308268851944
1548944161052526324,36482,1548944161052526324,/world,vicon/target3/target3,-0.531728788701,-0.962386578239,1.13642567089,-0.0505769192023,0.0135208885785,0.949456909748,-0.309500787313
1548944161057520919,36483,1548944161057520919,/world,vicon/target3/target3,-0.534934879018,-0.962527856787,1.13603648106,-0.0453213042955,0.0173382469511,0.950446548051,-0.307077716331
1548944161062546526,36484,1548944161062546526,/world,vicon/target3/target3,-0.538328274105,-0.962133003996,1.13604589355,-0.045606437458,0.0189863553169,0.949581273014,-0.30960454957
1548944161067526947,36485,1548944161067526947,/world,vicon/target3/target3,-0.541608489672,-0.9622539467,1.13567281746,-0.0386472164288,0.0178673147824,0.951236171086,-0.305510881219
1548944161072539196,36486,1548944161072539196,/world,vicon/target3/target3,-0.545087688743,-0.961812410979,1.13586618326,-0.0472617025135,0.0145531068786,0.949017111875,-0.3113214736
1548944161077529517,36487,1548944161077529517,/world,vicon/target3/target3,-0.548296098039,-0.961671813427,1.13551388548,-0.0418187228716,0.019656735167,0.949978675981,-0.308877519999
1548944161082532696,36488,1548944161082532696,/world,vicon/target3/target3,-0.551443139294,-0.961464159334,1.1354426354,-0.0463909109911,0.0187272247701,0.949172842342,-0.310754066409
1548944161087557079,36489,1548944161087557079,/world,vicon/target3/target3,-0.55454795471,-0.961309312111,1.13512194228,-0.0440945703253,0.0239293624027,0.950012457463,-0.308154807116
1548944161092531865,36490,1548944161092531865,/world,vicon/target3/target3,-0.557856956852,-0.961190643146,1.13502163222,-0.0472475506154,0.0152369263208,0.94923158094,-0.310636299847
1548944161097524150,36491,1548944161097524150,/world,vicon/target3/target3,-0.561037030115,-0.961201235701,1.13493019591,-0.0394728455819,0.0282446262028,0.950563693426,-0.306712895543
1548944161102463345,36492,1548944161102463345,/world,vicon/target3/target3,-0.563898331561,-0.960805780382,1.13477787262,-0.0465710403363,0.0213741151645,0.949564456802,-0.30935679689
1548944161107510023,36493,1548944161107510023,/world,vicon/target3/target3,-0.566861197405,-0.96076459111,1.13467703736,-0.0440515490516,0.0255272446068,0.950849195237,-0.305440057502
1548944161112532717,36494,1548944161112532717,/world,vicon/target3/target3,-0.570360644914,-0.960701327218,1.1347412453,-0.0464507665679,0.0126485624756,0.949541715501,-0.309923975638
1548944161117442874,36495,1548944161117442874,/world,vicon/target3/target3,-0.573323770726,-0.96062242652,1.13481544458,-0.0386187526761,0.021966200961,0.951709220181,-0.303769054018
