%time,field.header.seq,field.header.stamp,field.header.frame_id,field.child_frame_id,field.transform.translation.x,field.transform.translation.y,field.transform.translation.z,field.transform.rotation.x,field.transform.rotation.y,field.transform.rotation.z,field.transform.rotation.w
1548944321776251609,68501,1548944321776251609,/world,vicon/target3/target3,-0.0545420715338,1.2648959626,0.0152343837696,-0.0379248628341,0.0257041868652,0.133832852543,0.989944325271
1548944321781514946,68502,1548944321781514946,/world,vicon/target3/target3,-0.0544536658339,1.26487513571,0.0153598485288,-0.0379762280205,0.0261985657013,0.133846073909,0.989927608343
1548944321786533740,68503,1548944321786533740,/world,vicon/target3/target3,-0.0544865499946,1.26486888484,0.0153333083069,-0.0371544438767,0.0253779423486,0.134250877203,0.989925355425
1548944321791498715,68504,1548944321791498715,/world,vicon/target3/target3,-0.0544574213058,1.26488694858,0.0153086757159,-0.0390213145136,0.0259463269045,0.133458067111,0.989945993202
1548944321796499223,68505,1548944321796499223,/world,vicon/target3/target3,-0.0546108799915,1.2647325637,0.0149883786861,-0.0468930808685,0.0394346443106,0.133919858648,0.989096263897
1548944321801553316,68506,1548944321801553316,/world,vicon/target3/target3,-0.0544933218869,1.26494755888,0.0152359979778,-0.0351141176179,0.0253484150407,0.131254373113,0.990402315293
1548944321806521907,68507,1548944321806521907,/world,vicon/target3/target3,-0.054446577395,1.26491277849,0.0153436165768,-0.0384728210461,0.025070646758,0.134261356867,0.989881403383
1548944321811514779,68508,1548944321811514779,/world,vicon/target3/target3,-0.0544617193033,1.26493633792,0.015336463414,-0.0379795275918,0.0258589309077,0.133831852511,0.98993833466
1548944321816474301,68509,1548944321816474301,/world,vicon/target3/target3,-0.0544574887318,1.26491030949,0.0153512637683,-0.0390775452467,0.0261404253482,0.133725577637,0.989902567683
1548944321821344442,68510,1548944321821344442,/world,vicon/target3/target3,-0.054732480023,1.26475219966,0.0149329100647,-0.0463788296802,0.0412831790655,0.133289820267,0.989130187133
1548944321826359591,68511,1548944321826359591,/world,vicon/target3/target3,-0.0544439387224,1.26466427428,0.0149599465596,-0.0358656927154,0.0323026203826,0.129551485269,0.990397195809
1548944321831243191,68512,1548944321831243191,/world,vicon/target3/target3,-0.054320578646,1.26458302801,0.0151423314572,-0.0360185577736,0.032444248197,0.130897242973,0.990210051472
1548944321836236825,68513,1548944321836236825,/world,vicon/target3/target3,-0.0545184309733,1.26470825439,0.0148579540046,-0.0374691667125,0.0349185193799,0.129263272452,0.990286708456
1548944321841141703,68514,1548944321841141703,/world,vicon/target3/target3,-0.054486138226,1.26467273514,0.014946821285,-0.0370086383636,0.0345326639375,0.130585179441,0.990144114116
1548944321846235099,68515,1548944321846235099,/world,vicon/target3/target3,-0.0532879982719,1.26444197389,0.0166353626956,-0.0249617341921,0.0230501436124,0.142207152556,0.989253621913
1548944321851242458,68516,1548944321851242458,/world,vicon/target3/target3,-0.0543745667738,1.26484131174,0.0154636785515,-0.0360298571984,0.0262637632774,0.135678974622,0.989749099507
1548944321856238161,68517,1548944321856238161,/world,vicon/target3/target3,-0.0545682288533,1.26502349698,0.0151067966905,-0.0387098184871,0.027384014048,0.131224756508,0.990218020946
1548944321861211953,68518,1548944321861211953,/world,vicon/target3/target3,-0.0545204456179,1.26488473721,0.0152268612032,-0.0376243126941,0.0259340203916,0.133601793629,0.989981009121
1548944321866199911,68519,1548944321866199911,/world,vicon/target3/target3,-0.0545020807132,1.26491949737,0.015328489729,-0.0386993505425,0.0255979835009,0.133456609845,0.989967896852
1548944321871170063,68520,1548944321871170063,/world,vicon/target3/target3,-0.0544835308664,1.26489505357,0.0152747314819,-0.0370919830684,0.0244136427279,0.133833606016,0.990008446803
1548944321876234843,68521,1548944321876234843,/world,vicon/target3/target3,-0.0547737736045,1.26493432542,0.0148928944489,-0.0377974059272,0.0318392743957,0.133604680588,0.98980170036
1548944321881251479,68522,1548944321881251479,/world,vicon/target3/target3,-0.0549740301253,1.2646796955,0.0147577582033,-0.052445489207,0.0420549394871,0.130835543537,0.989122294397
1548944321886269036,68523,1548944321886269036,/world,vicon/target3/target3,-0.0544725068263,1.26466219567,0.0148700489611,-0.0367747753079,0.0344369627185,0.129059359657,0.990356195106
1548944321891232995,68524,1548944321891232995,/world,vicon/target3/target3,-0.054446746729,1.26490596907,0.01526499858,-0.0338972077879,0.0242729002054,0.1302695349,0.990601662575
1548944321896451980,68525,1548944321896451980,/world,vicon/target3/target3,-0.0545018295236,1.26487582161,0.015315035662,-0.0362168745794,0.0257825952243,0.134013178593,0.989981850209
1548944321901349388,68526,1548944321901349388,/world,vicon/target3/target3,-0.0550138841253,1.26467856045,0.0146612985798,-0.0493402031438,0.041876655617,0.131432446437,0.989210494329
1548944321906343818,68527,1548944321906343818,/world,vicon/target3/target3,-0.0544828297448,1.26468450689,0.0149650835699,-0.0355926030846,0.0333656180519,0.129057025136,0.990436361611
1548944321911320175,68528,1548944321911320175,/world,vicon/target3/target3,-0.0544403221222,1.26465609503,0.0149241540746,-0.0363577441803,0.0340199303986,0.129519507027,0.990325934263
1548944321916329232,68529,1548944321916329232,/world,vicon/target3/target3,-0.0542608408927,1.26454649268,0.015202456886,-0.0351921703832,0.0311707800275,0.132526128969,0.990063997304
1548944321921331973,68530,1548944321921331973,/world,vicon/target3/target3,-0.0544344088378,1.26465064832,0.0149184049432,-0.0363821791859,0.0339936918665,0.129389781557,0.990342895355
1548944321926323468,68531,1548944321926323468,/world,vicon/target3/target3,-0.0544176141323,1.26463253629,0.0149324933469,-0.0365042721096,0.0330263354068,0.130594023835,0.990213057996
1548944321931325608,68532,1548944321931325608,/world,vicon/target3/target3,-0.0545060667555,1.26495779892,0.0152268422105,-0.033210513329,0.0251046923637,0.130745208538,0.990541521931
1548944321936332967,68533,1548944321936332967,/world,vicon/target3/target3,-0.0545009817468,1.26490022105,0.0152535962232,-0.0367665134765,0.0244125242204,0.133577387029,0.990055217562
1548944321941316102,68534,1548944321941316102,/world,vicon/target3/target3,-0.0545864080862,1.2649368977,0.0152079859841,-0.0373989516661,0.0265522086835,0.133457778496,0.989992585824
1548944321946316659,68535,1548944321946316659,/world,vicon/target3/target3,-0.0544405735852,1.26485090566,0.015365992386,-0.0360518992499,0.0247245559869,0.134325747084,0.989972499902
1548944321951316409,68536,1548944321951316409,/world,vicon/target3/target3,-0.0545573620858,1.26494293259,0.0151910928827,-0.037823504867,0.0289074861994,0.132822481111,0.989995923342
1548944321956320757,68537,1548944321956320757,/world,vicon/target3/target3,-0.0546072695944,1.26493771315,0.0151964204591,-0.0363491811111,0.0251078118399,0.133206668356,0.990103185695
1548944321961329255,68538,1548944321961329255,/world,vicon/target3/target3,-0.0544179830504,1.26485439227,0.0154104336005,-0.0374753124836,0.0250917068094,0.134591896343,0.989874248904
1548944321966360180,68539,1548944321966360180,/world,vicon/target3/target3,-0.0546291929928,1.26495966429,0.0151317559982,-0.0373597123112,0.0260860388877,0.131904914082,0.990214554585
1548944321971177710,68540,1548944321971177710,/world,vicon/target3/target3,-0.0545640086079,1.26494328153,0.0151980054211,-0.0369613099497,0.0242930297359,0.132998583666,0.990128823445
1548944321976199459,68541,1548944321976199459,/world,vicon/target3/target3,-0.0546909968324,1.26471975882,0.0149178653382,-0.0465175462589,0.0387249853915,0.133834562321,0.989153579241
1548944321981220066,68542,1548944321981220066,/world,vicon/target3/target3,-0.0544260703987,1.26463462788,0.0149343230114,-0.0347394396149,0.0329584040869,0.1301693014,0.990334725186
1548944321986204128,68543,1548944321986204128,/world,vicon/target3/target3,-0.0544000211631,1.26462735293,0.0150141732972,-0.0376142889613,0.032687941349,0.130039232055,0.990255755794
1548944321991209508,68544,1548944321991209508,/world,vicon/target3/target3,-0.0544720933562,1.2646488716,0.0149330456571,-0.0348525223051,0.0333554425824,0.129772977769,0.990369471652
1548944321996207387,68545,1548944321996207387,/world,vicon/target3/target3,-0.0544718304622,1.26469044604,0.0149701591799,-0.0372335706097,0.0349986391323,0.129907611411,0.990208447235
1548944322001207721,68546,1548944322001207721,/world,vicon/target3/target3,-0.054501408084,1.26496510748,0.0151647031385,-0.0341942622389,0.0252643568584,0.131175948476,0.990447038081
1548944322006214279,68547,1548944322006214279,/world,vicon/target3/target3,-0.0545260564285,1.26491070748,0.0153160659638,-0.0372238229407,0.0272801830911,0.133668882337,0.989950912172
1548944322011205220,68548,1548944322011205220,/world,vicon/target3/target3,-0.0545008242541,1.2649242026,0.015300768888,-0.0380263269308,0.0258779161023,0.13425395445,0.989878885335
1548944322016213028,68549,1548944322016213028,/world,vicon/target3/target3,-0.0549966033869,1.26481876379,0.0144151221593,-0.0471272800137,0.0485148509933,0.132587506807,0.988860901113
1548944322021220314,68550,1548944322021220314,/world,vicon/target3/target3,-0.0544194241662,1.26473977317,0.0149677009234,-0.0372704087834,0.0344594323863,0.129374211192,0.990295803095
1548944322026223632,68551,1548944322026223632,/world,vicon/target3/target3,-0.0545151940204,1.26467551427,0.0148946141025,-0.0374810328328,0.0344536257145,0.128987366009,0.99033851751
1548944322031199079,68552,1548944322031199079,/world,vicon/target3/target3,-0.0544895385756,1.2649912803,0.0152620975383,-0.0346148948461,0.0253754975481,0.130827750754,0.990475639686
1548944322036223667,68553,1548944322036223667,/world,vicon/target3/target3,-0.0544832926894,1.26491259335,0.0152821078338,-0.0372954681767,0.0250904390315,0.134244128895,0.989928296282
1548944322041203612,68554,1548944322041203612,/world,vicon/target3/target3,-0.0545381446328,1.26490993147,0.0152615715705,-0.0367371743242,0.026653797983,0.133048989679,0.990069654833
1548944322046249537,68555,1548944322046249537,/world,vicon/target3/target3,-0.0547421660521,1.26477906103,0.0149280252686,-0.0469659600845,0.0417944852625,0.133247716771,0.989086682536
1548944322051222871,68556,1548944322051222871,/world,vicon/target3/target3,-0.0544504466422,1.26468553513,0.0149421012338,-0.0359797037827,0.0348032863986,0.129411210493,0.990326678814
1548944322056311003,68557,1548944322056311003,/world,vicon/target3/target3,-0.0544857876854,1.26470104309,0.0148770066422,-0.035231570156,0.0340202384186,0.129315468922,0.990393290234
1548944322061308063,68558,1548944322061308063,/world,vicon/target3/target3,-0.0543888557643,1.26463503164,0.0150010595794,-0.0371496743287,0.033517271453,0.131097036824,0.990106085805
1548944322066341915,68559,1548944322066341915,/world,vicon/target3/target3,-0.0544092285799,1.26466610254,0.0150113066673,-0.0362053107944,0.0325933751119,0.129710992705,0.990354434402
1548944322071349126,68560,1548944322071349126,/world,vicon/target3/target3,-0.054584196327,1.26476441462,0.0147398107307,-0.0364142535479,0.0348599446214,0.127645288671,0.990537968318
1548944322076309226,68561,1548944322076309226,/world,vicon/target3/target3,-0.0544484077535,1.26468971193,0.0149863543222,-0.0354932657654,0.0341867421834,0.12993438634,0.990297202859
1548944322081304792,68562,1548944322081304792,/world,vicon/target3/target3,-0.0544609187038,1.26466947916,0.0149004763123,-0.0343894201504,0.0338609483513,0.128969815741,0.990473417405
1548944322086323342,68563,1548944322086323342,/world,vicon/target3/target3,-0.0546929577133,1.26469949104,0.0145427363139,-0.0377523102563,0.0444083527477,0.129960149728,0.989804536643
1548944322091301246,68564,1548944322091301246,/world,vicon/target3/target3,-0.0544045076587,1.26472265261,0.0149757749808,-0.035025394091,0.0326819379948,0.129371397376,0.990438364684
1548944322096308521,68565,1548944322096308521,/world,vicon/target3/target3,-0.0544046407427,1.26470023352,0.0150080986892,-0.0375610404186,0.0345038165386,0.129274102604,0.990296350232
1548944322101320471,68566,1548944322101320471,/world,vicon/target3/target3,-0.0544262408874,1.26466476206,0.0149855734572,-0.0353339794137,0.0322785920648,0.129486960612,0.990425529469
1548944322106326263,68567,1548944322106326263,/world,vicon/target3/target3,-0.0544513586318,1.26469670961,0.0149795789425,-0.0348357007514,0.0326695207018,0.129776264531,0.990392496708
1548944322111303132,68568,1548944322111303132,/world,vicon/target3/target3,-0.0544085360673,1.26464151273,0.014997803956,-0.0382136808719,0.0348526108441,0.130107862584,0.990149965513
1548944322116355697,68569,1548944322116355697,/world,vicon/target3/target3,-0.0548208328612,1.26474856418,0.0142568189352,-0.0407756161957,0.0472087915067,0.126528233175,0.98999963906
1548944322121324279,68570,1548944322121324279,/world,vicon/target3/target3,-0.0542986725301,1.26465769402,0.0151028604441,-0.0353233133381,0.0324723976868,0.130120389743,0.990336554458
1548944322126297449,68571,1548944322126297449,/world,vicon/target3/target3,-0.0544699185514,1.26466238761,0.014925531311,-0.0369981091364,0.0342508074847,0.129145864249,0.99034305564
1548944322131347185,68572,1548944322131347185,/world,vicon/target3/target3,-0.0544229441666,1.26463693928,0.0149421512285,-0.0365384388223,0.0330028893324,0.130288863235,0.99025277778
1548944322136323037,68573,1548944322136323037,/world,vicon/target3/target3,-0.0544206276968,1.26462686093,0.0149815468065,-0.0375547911008,0.0340567218499,0.129944212345,0.990224357931
1548944322141305013,68574,1548944322141305013,/world,vicon/target3/target3,-0.054406479204,1.2646329362,0.01499739082,-0.0365585737062,0.0328301526053,0.129642263039,0.990342635355
1548944322146330730,68575,1548944322146330730,/world,vicon/target3/target3,-0.0544252798616,1.26463835441,0.0149634997863,-0.0367329113902,0.0339473348122,0.129858908608,0.990270132608
1548944322151340478,68576,1548944322151340478,/world,vicon/target3/target3,-0.0544993894985,1.26466944931,0.0148945786143,-0.0365882131907,0.0335378126133,0.129747201475,0.990304085365
1548944322156348516,68577,1548944322156348516,/world,vicon/target3/target3,-0.0545100209176,1.26495424435,0.0151261562196,-0.0320809019091,0.0250174856946,0.131203552271,0.99052035265
1548944322161290597,68578,1548944322161290597,/world,vicon/target3/target3,-0.0549745505405,1.2647140372,0.0147332308353,-0.0485484671518,0.042584858622,0.131749420496,0.989177267406
1548944322166310138,68579,1548944322166310138,/world,vicon/target3/target3,-0.0544106517492,1.26463776153,0.0149707681432,-0.0371308359256,0.0334637479767,0.130446046022,0.990194580712
1548944322171278104,68580,1548944322171278104,/world,vicon/target3/target3,-0.0544250994314,1.26464756225,0.0150180340327,-0.0350051573591,0.0328630670674,0.129769330502,0.990381027
1548944322176328563,68581,1548944322176328563,/world,vicon/target3/target3,-0.0544252461022,1.26467570866,0.0149702936519,-0.0381852735347,0.0351129915666,0.129525928417,0.990218156053
1548944322181344947,68582,1548944322181344947,/world,vicon/target3/target3,-0.0544424038149,1.26468027788,0.0149887821286,-0.0346636449711,0.0322756773068,0.130185027863,0.99035779943
1548944322186340151,68583,1548944322186340151,/world,vicon/target3/target3,-0.0544912483162,1.26465000547,0.01492104537,-0.0351385521718,0.0341429241662,0.129751365891,0.990335360335
1548944322191291682,68584,1548944322191291682,/world,vicon/target3/target3,-0.0545232964601,1.26495746873,0.0151922847051,-0.0355139131919,0.0246029365734,0.130573181446,0.990496896395
1548944322196326311,68585,1548944322196326311,/world,vicon/target3/target3,-0.0545174400355,1.26490208319,0.0153152278616,-0.0360538863893,0.0256814713639,0.133446659587,0.990066951448
1548944322201285633,68586,1548944322201285633,/world,vicon/target3/target3,-0.0544854298564,1.26488614677,0.0152247887029,-0.0366483493204,0.02695159257,0.133718470004,0.989974687015
1548944322206328428,68587,1548944322206328428,/world,vicon/target3/target3,-0.0544050337286,1.26486144524,0.0154264546605,-0.0382154392191,0.0249030882173,0.134407126238,0.989875820908
1548944322211320461,68588,1548944322211320461,/world,vicon/target3/target3,-0.0544483884999,1.26489193183,0.0153543033964,-0.039296584468,0.0260701610338,0.133336258602,0.989948264959
1548944322216496223,68589,1548944322216496223,/world,vicon/target3/target3,-0.0544024644074,1.26482983207,0.0154531914981,-0.035875799754,0.0251184355156,0.135687972378,0.989783191078
1548944322221398382,68590,1548944322221398382,/world,vicon/target3/target3,-0.0547439104822,1.2648037588,0.0149259256972,-0.0466625081525,0.0417455359514,0.133448121898,0.989076093798
1548944322226486904,68591,1548944322226486904,/world,vicon/target3/target3,-0.0544670184169,1.26495849622,0.0152486998347,-0.0351439553018,0.023120395148,0.131108076529,0.990475149614
1548944322231455590,68592,1548944322231455590,/world,vicon/target3/target3,-0.0544730721871,1.26488930266,0.0153318467237,-0.037686689422,0.0251645457124,0.134082266327,0.989933535615
1548944322236458836,68593,1548944322236458836,/world,vicon/target3/target3,-0.0544809869835,1.26490035948,0.0153185043593,-0.0391704976751,0.026285223992,0.133882297181,0.989873875609
1548944322241492015,68594,1548944322241492015,/world,vicon/target3/target3,-0.0546322884947,1.26477639805,0.0149983010223,-0.0463412939418,0.0387982722539,0.133891943218,0.989151214975
1548944322246470676,68595,1548944322246470676,/world,vicon/target3/target3,-0.0544956671041,1.26495727713,0.015213030723,-0.0352527381144,0.0241771236259,0.130727019022,0.990496419805
1548944322251500156,68596,1548944322251500156,/world,vicon/target3/target3,-0.0545110634959,1.26489268484,0.0152883743184,-0.0364413180775,0.0248088395979,0.133561245067,0.990059566708
1548944322256495400,68597,1548944322256495400,/world,vicon/target3/target3,-0.0547496901717,1.26478049286,0.0149806508167,-0.0466092024852,0.0397791648501,0.134032195315,0.989080669565
1548944322261487979,68598,1548944322261487979,/world,vicon/target3/target3,-0.0530199334358,1.26407604673,0.0166669055382,-0.0247776391973,0.0288853318503,0.139119034919,0.989544137633
1548944322266479798,68599,1548944322266479798,/world,vicon/target3/target3,-0.0545004149459,1.26475205071,0.01491138479,-0.035160807949,0.0328360848787,0.130614186204,0.990265339935
1548944322271501112,68600,1548944322271501112,/world,vicon/target3/target3,-0.0544219854305,1.26465269155,0.0149656394678,-0.0360989929307,0.0340695260026,0.129466859936,0.990340578935
1548944322276498481,68601,1548944322276498481,/world,vicon/target3/target3,-0.0545198353732,1.26469578357,0.0148932606021,-0.0361318234446,0.0348360953984,0.129577785941,0.99029820518
1548944322281525275,68602,1548944322281525275,/world,vicon/target3/target3,-0.0544168861365,1.26465892913,0.015014871459,-0.0367147168323,0.032331028598,0.130245833784,0.990274081727
1548944322286490930,68603,1548944322286490930,/world,vicon/target3/target3,-0.0544287484925,1.264688005,0.0149553837608,-0.037219231437,0.0331617167036,0.129385106648,0.990340609858
1548944322291387297,68604,1548944322291387297,/world,vicon/target3/target3,-0.0544371440416,1.26471266265,0.0149786057809,-0.0374160975037,0.0350952882125,0.128872277544,0.9903334249
1548944322296509559,68605,1548944322296509559,/world,vicon/target3/target3,-0.054398885148,1.26466530965,0.0150224356397,-0.0364662910558,0.0330947926315,0.130000836315,0.990290223558
1548944322301489931,68606,1548944322301489931,/world,vicon/target3/target3,-0.0544542742332,1.26468312832,0.0149041262622,-0.0374080895691,0.033868113123,0.129955150906,0.990234944092
1548944322306483135,68607,1548944322306483135,/world,vicon/target3/target3,-0.0544463595074,1.26465414868,0.0149251780547,-0.0349201756018,0.0332296368488,0.130077069279,0.990331423625
1548944322311477914,68608,1548944322311477914,/world,vicon/target3/target3,-0.0544638897932,1.26466965871,0.0149101846152,-0.036234481383,0.0340161876974,0.130047690308,0.990261359227
1548944322316400206,68609,1548944322316400206,/world,vicon/target3/target3,-0.052962991263,1.26404783786,0.0166828887516,-0.0235143892349,0.0297871946388,0.139112796125,0.989549102616
1548944322321481125,68610,1548944322321481125,/world,vicon/target3/target3,-0.0544238305706,1.26468242447,0.0149794652912,-0.0358349734957,0.033305506071,0.12976977233,0.990336510551
1548944322326489498,68611,1548944322326489498,/world,vicon/target3/target3,-0.0544335452086,1.26469861853,0.0150148415379,-0.0355793983329,0.033444614646,0.129720795971,0.990347453805
1548944322331500616,68612,1548944322331500616,/world,vicon/target3/target3,-0.0545734457495,1.26505878461,0.0150407671313,-0.0340482582413,0.0265419111595,0.130707962795,0.990480525566
1548944322336375123,68613,1548944322336375123,/world,vicon/target3/target3,-0.0545346042763,1.26491922881,0.015218135351,-0.0371765282547,0.0260306589232,0.133316552426,0.990033841539
1548944322341433857,68614,1548944322341433857,/world,vicon/target3/target3,-0.0532662454892,1.26441281413,0.0167155059819,-0.0237050729577,0.0237329790677,0.142468294609,0.989230812425
1548944322346486853,68615,1548944322346486853,/world,vicon/target3/target3,-0.054659010081,1.26475333368,0.0149730143308,-0.0474429569636,0.0398170508081,0.133415198513,0.98912292113
1548944322351496374,68616,1548944322351496374,/world,vicon/target3/target3,-0.0544264428505,1.26464731521,0.0150209704822,-0.0368818190983,0.033017565056,0.130480825421,0.990214282878
1548944322356499067,68617,1548944322356499067,/world,vicon/target3/target3,-0.0543591414939,1.26464097376,0.0150072375877,-0.0370562774431,0.0324549650506,0.130415264937,0.99023500555
1548944322361481464,68618,1548944322361481464,/world,vicon/target3/target3,-0.0544236894886,1.26466826125,0.0149451614458,-0.0374354792174,0.0343959886195,0.13030407436,0.990169858695
1548944322366799372,68619,1548944322366799372,/world,vicon/target3/target3,-0.0529470261437,1.26405215319,0.0166972988007,-0.0245130481961,0.0292282070314,0.139482958238,0.989489427302
1548944322371487632,68620,1548944322371487632,/world,vicon/target3/target3,-0.0544354030892,1.26492962028,0.0152375395285,-0.0344239466357,0.0232761853049,0.130662709734,0.990555635682
1548944322376475392,68621,1548944322376475392,/world,vicon/target3/target3,-0.0545817759252,1.26493460054,0.0151975158646,-0.0355699494315,0.0253151249925,0.133628818403,0.990069321834
1548944322381497262,68622,1548944322381497262,/world,vicon/target3/target3,-0.0546500416633,1.26474331613,0.0149905910639,-0.0476571772384,0.038449420072,0.133973047035,0.989091329566
1548944322386477696,68623,1548944322386477696,/world,vicon/target3/target3,-0.0543922734547,1.26461581548,0.0150285440351,-0.0345395673335,0.0320358500264,0.130127997532,0.990377416372
1548944322391481605,68624,1548944322391481605,/world,vicon/target3/target3,-0.0544861460041,1.26468562446,0.0148892365731,-0.0377042930318,0.0349287628934,0.129434089287,0.990255110737
1548944322396478852,68625,1548944322396478852,/world,vicon/target3/target3,-0.0547964608886,1.26474441831,0.0142670792485,-0.0393808018416,0.045995389227,0.127978929732,0.989926749897
1548944322401483649,68626,1548944322401483649,/world,vicon/target3/target3,-0.0543450190127,1.26472635965,0.01505757738,-0.0334723137173,0.0306347216013,0.129706477141,0.990513678772
1548944322406498948,68627,1548944322406498948,/world,vicon/target3/target3,-0.0544876391066,1.2646871703,0.0148862830456,-0.0369450704455,0.0352436297844,0.130192561955,0.990173138972
1548944322411476750,68628,1548944322411476750,/world,vicon/target3/target3,-0.0544541420318,1.2646701889,0.0149400240584,-0.0357866685182,0.0344117431274,0.129523945804,0.990332617737
1548944322416464755,68629,1548944322416464755,/world,vicon/target3/target3,-0.0543780837764,1.26464357564,0.0149757776083,-0.0367799883212,0.0343334572258,0.130350828111,0.99019044016
1548944322421484433,68630,1548944322421484433,/world,vicon/target3/target3,-0.0544404355805,1.26490821063,0.0152583843189,-0.0337011801524,0.0232465168222,0.131177459748,0.990513151839
1548944322426464970,68631,1548944322426464970,/world,vicon/target3/target3,-0.0544861067739,1.26493939521,0.0152601110108,-0.0378146360121,0.02803351794,0.134146310309,0.989842887839
1548944322431489265,68632,1548944322431489265,/world,vicon/target3/target3,-0.0544748173325,1.26488716153,0.015323393878,-0.0380415427085,0.0263125149059,0.133334155878,0.989991159286
1548944322436508331,68633,1548944322436508331,/world,vicon/target3/target3,-0.0544762164552,1.26489966669,0.0153211939431,-0.0380872906696,0.0264667899953,0.134252094189,0.989861223871
1548944322441440452,68634,1548944322441440452,/world,vicon/target3/target3,-0.0544737185092,1.2649296397,0.015360316236,-0.0369386499798,0.0261753639952,0.133990135896,0.989947993553
1548944322446463723,68635,1548944322446463723,/world,vicon/target3/target3,-0.0545171197393,1.26491484044,0.015244605441,-0.0377166701231,0.0269231317022,0.133423399325,0.989975148318
1548944322451506363,68636,1548944322451506363,/world,vicon/target3/target3,-0.0545435983462,1.26445614463,0.01489006557,-0.0434101066672,0.0385153566357,0.131898490731,0.98956299349
1548944322456502720,68637,1548944322456502720,/world,vicon/target3/target3,-0.0544090190547,1.26491213052,0.015364164094,-0.0336622499699,0.0243944717771,0.131396046914,0.99045789488
1548944322461490909,68638,1548944322461490909,/world,vicon/target3/target3,-0.0544975216584,1.2649625405,0.0153103251669,-0.0379255487973,0.0256719929993,0.133161135894,0.9900357132
1548944322466516999,68639,1548944322466516999,/world,vicon/target3/target3,-0.0545338558374,1.2649476701,0.0152740522465,-0.0373148522449,0.0255855113564,0.133585377589,0.990004005196
1548944322471509249,68640,1548944322471509249,/world,vicon/target3/target3,-0.0545200268577,1.26495335035,0.0152310654184,-0.0383967886673,0.0275159946834,0.132180225699,0.990099461969
1548944322476488038,68641,1548944322476488038,/world,vicon/target3/target3,-0.0549561277301,1.26479556161,0.0144792290818,-0.0457223353997,0.047323027638,0.133546007749,0.988855633
1548944322481520724,68642,1548944322481520724,/world,vicon/target3/target3,-0.0543753138263,1.26473157358,0.0150158171087,-0.0367841950662,0.0341099121049,0.12976320296,0.99027518804
1548944322486488864,68643,1548944322486488864,/world,vicon/target3/target3,-0.0544034114879,1.26465864031,0.0150335805554,-0.0358580499308,0.0328139043767,0.129788295023,0.990349658661
1548944322491437212,68644,1548944322491437212,/world,vicon/target3/target3,-0.052947618858,1.26401793282,0.0167101841733,-0.0232789246673,0.0294657143416,0.139198349259,0.989552263859
1548944322496511142,68645,1548944322496511142,/world,vicon/target3/target3,-0.0544511738371,1.26468469641,0.0149167050364,-0.0381645089843,0.0347368657142,0.130132321335,0.99015271517
1548944322501500818,68646,1548944322501500818,/world,vicon/target3/target3,-0.0543831231078,1.2646636402,0.0150412677799,-0.0369240884931,0.0331702066912,0.13038186117,0.990220641754
1548944322506478539,68647,1548944322506478539,/world,vicon/target3/target3,-0.054378964973,1.26463978951,0.0149976757846,-0.0362255988409,0.034928922511,0.130148004681,0.990216730438
1548944322511421358,68648,1548944322511421358,/world,vicon/target3/target3,-0.0544001675789,1.26466772302,0.0149591088904,-0.0364574556982,0.0329944861999,0.130512397345,0.99022660636
1548944322516502347,68649,1548944322516502347,/world,vicon/target3/target3,-0.0543964917308,1.26465169519,0.0149646516192,-0.0370185526443,0.0339228245392,0.130449567444,0.990182699853
1548944322521520310,68650,1548944322521520310,/world,vicon/target3/target3,-0.0543712477445,1.26460860127,0.0149786739578,-0.0365703251428,0.033822202426,0.130806317949,0.990155733775
1548944322526399814,68651,1548944322526399814,/world,vicon/target3/target3,-0.0544507793348,1.26465886355,0.0148761498304,-0.0359451209829,0.0330253931672,0.129801090045,0.990337795253
1548944322531538019,68652,1548944322531538019,/world,vicon/target3/target3,-0.0543932182145,1.26490199455,0.0153279306798,-0.0330575320431,0.0235045523414,0.131203388223,0.990525318462
1548944322536472537,68653,1548944322536472537,/world,vicon/target3/target3,-0.0545212623321,1.26444248321,0.0148618829047,-0.0433351976438,0.0379813918875,0.132021636736,0.989570493673
1548944322541490266,68654,1548944322541490266,/world,vicon/target3/target3,-0.0544412808124,1.26473705735,0.0149701936037,-0.0350207720081,0.0338258322326,0.130844173894,0.990206625286
1548944322546436288,68655,1548944322546436288,/world,vicon/target3/target3,-0.0544339971678,1.26463113319,0.0149419388524,-0.0374003156383,0.0348659495356,0.13020668451,0.990167562215
1548944322551527658,68656,1548944322551527658,/world,vicon/target3/target3,-0.0544618131518,1.26469071911,0.014961606123,-0.0364798228332,0.0356319408098,0.129571655686,0.990257932744
1548944322556416557,68657,1548944322556416557,/world,vicon/target3/target3,-0.054390955495,1.26463353491,0.0149910807987,-0.0356829493472,0.0336044606836,0.130570563682,0.990226638325
1548944322561487991,68658,1548944322561487991,/world,vicon/target3/target3,-0.0534114026023,1.26422332337,0.0160678252249,-0.0230870943387,0.0347074041259,0.137651969574,0.989603111073
1548944322566456412,68659,1548944322566456412,/world,vicon/target3/target3,-0.0543835482887,1.2647541584,0.0149582557525,-0.0356323540724,0.0316584556667,0.129349995725,0.990452753105
1548944322571451282,68660,1548944322571451282,/world,vicon/target3/target3,-0.0543705848842,1.26464038541,0.0150310526524,-0.0380863292373,0.0336797592835,0.130178731462,0.99018614574
1548944322576366226,68661,1548944322576366226,/world,vicon/target3/target3,-0.0543972859456,1.26464171601,0.014982449141,-0.0364532572508,0.0320783047993,0.129684862536,0.990365578373
1548944322581541755,68662,1548944322581541755,/world,vicon/target3/target3,-0.0543880607347,1.26464430879,0.0150026496977,-0.036596047773,0.0327685831674,0.130046236972,0.990290323841
1548944322586511542,68663,1548944322586511542,/world,vicon/target3/target3,-0.0544627991848,1.26466596551,0.0149682548862,-0.0381446731563,0.0347512049048,0.130322659597,0.99012794227
1548944322591461936,68664,1548944322591461936,/world,vicon/target3/target3,-0.0544362978033,1.264659357,0.0149281688291,-0.0351603479252,0.0321568549042,0.129726802756,0.990404282737
1548944322596474598,68665,1548944322596474598,/world,vicon/target3/target3,-0.0544413965984,1.26465666784,0.0149209379275,-0.0357644811409,0.0327035596174,0.12916283742,0.990438458718
1548944322601513251,68666,1548944322601513251,/world,vicon/target3/target3,-0.0543695962858,1.26463658539,0.0150441482304,-0.0365466415308,0.0328121348833,0.130299448288,0.990257421367
1548944322606479258,68667,1548944322606479258,/world,vicon/target3/target3,-0.054411965416,1.26490557099,0.0153382411384,-0.0331679816744,0.0236247962629,0.132443134014,0.990353760151
1548944322611502172,68668,1548944322611502172,/world,vicon/target3/target3,-0.0545193973224,1.26494163154,0.0152663382226,-0.0380933872417,0.0255586516779,0.133461974562,0.989991692146
1548944322616486384,68669,1548944322616486384,/world,vicon/target3/target3,-0.0547336539229,1.26479358948,0.0149521237377,-0.0483761004937,0.0413934123101,0.133224366157,0.989038728554
1548944322621474093,68670,1548944322621474093,/world,vicon/target3/target3,-0.0544281639482,1.26465907548,0.0149558505382,-0.0368630787266,0.0352220396302,0.129989243058,0.990203675029
1548944322626466486,68671,1548944322626466486,/world,vicon/target3/target3,-0.0544565089084,1.26468673451,0.0149014950003,-0.0370212131723,0.0322657025018,0.129531901388,0.990358440536
1548944322631510638,68672,1548944322631510638,/world,vicon/target3/target3,-0.0544506004357,1.26468997129,0.0149450559631,-0.0380309602023,0.0351774805289,0.129546133716,0.990219162695
1548944322636462586,68673,1548944322636462586,/world,vicon/target3/target3,-0.0544593215052,1.26468133688,0.0149605998488,-0.0380656611116,0.0354362860625,0.130415808228,0.990094435919
1548944322641490392,68674,1548944322641490392,/world,vicon/target3/target3,-0.0544577082725,1.26467042777,0.0149635377902,-0.0373480917861,0.0348772628045,0.130037298271,0.990191394447
1548944322646553907,68675,1548944322646553907,/world,vicon/target3/target3,-0.0544405988357,1.26468790445,0.0150084853845,-0.035859507698,0.0342817088332,0.129345056059,0.990357873004
1548944322651515543,68676,1548944322651515543,/world,vicon/target3/target3,-0.0529156041999,1.26403740904,0.0167590133446,-0.0240481581595,0.0283709534376,0.139341616119,0.989545698342
1548944322656523573,68677,1548944322656523573,/world,vicon/target3/target3,-0.0544322229282,1.26467028299,0.0149236794558,-0.0374977436602,0.0340614864102,0.130227576622,0.990189129738
1548944322661502127,68678,1548944322661502127,/world,vicon/target3/target3,-0.0544053570592,1.26465814144,0.0149992806854,-0.0370478152445,0.0341349089452,0.130702091407,0.990141015552
1548944322666540201,68679,1548944322666540201,/world,vicon/target3/target3,-0.0544202403372,1.26464999714,0.014922070461,-0.0372742491983,0.0330558155373,0.130030721496,0.990257519473
1548944322671475633,68680,1548944322671475633,/world,vicon/target3/target3,-0.0544743925364,1.26466570779,0.0148983020938,-0.0360698458557,0.0348144151561,0.129737755266,0.990280282332
1548944322676491925,68681,1548944322676491925,/world,vicon/target3/target3,-0.0543853230877,1.26462830163,0.0150286861778,-0.0347909909528,0.0322333905871,0.130198535056,0.990352935548
1548944322681472388,68682,1548944322681472388,/world,vicon/target3/target3,-0.0545234792161,1.26470756437,0.0148643137313,-0.037896770649,0.0354746265894,0.12944019523,0.990227560464
1548944322686447068,68683,1548944322686447068,/world,vicon/target3/target3,-0.0543774544165,1.26463857807,0.0150786048591,-0.0390085721065,0.0354699835706,0.12976044056,0.990142636004
1548944322691425881,68684,1548944322691425881,/world,vicon/target3/target3,-0.0544161215717,1.26461374097,0.0149659276051,-0.036754017982,0.0340280138881,0.129602870368,0.9903001224
1548944322696519269,68685,1548944322696519269,/world,vicon/target3/target3,-0.054412961585,1.26463333346,0.0149454419164,-0.0368681654653,0.0337070007003,0.130315823583,0.99021329147
1548944322701495775,68686,1548944322701495775,/world,vicon/target3/target3,-0.0544624801302,1.26471052468,0.0149399782701,-0.0366485490093,0.0341787184316,0.129720446524,0.990283446704
1548944322706527505,68687,1548944322706527505,/world,vicon/target3/target3,-0.0544500669586,1.26465200238,0.0149311202607,-0.0383470028654,0.0350488808096,0.129766001089,0.990182744894
1548944322711490338,68688,1548944322711490338,/world,vicon/target3/target3,-0.0544235886487,1.26477075006,0.0149179812771,-0.0382295407072,0.0339299892148,0.128874986448,0.99034261542
1548944322716478859,68689,1548944322716478859,/world,vicon/target3/target3,-0.0544625499517,1.26465411523,0.0149251863003,-0.0375381159295,0.0346133505019,0.129200974164,0.990302940566
1548944322721420163,68690,1548944322721420163,/world,vicon/target3/target3,-0.0542999067239,1.26459948582,0.0151381587944,-0.0344854903482,0.0315583505295,0.132248335339,0.990113730471
1548944322726485348,68691,1548944322726485348,/world,vicon/target3/target3,-0.0544982462454,1.26497117148,0.0152142192848,-0.0329573455266,0.0231802307756,0.130339203893,0.990650383438
1548944322731512835,68692,1548944322731512835,/world,vicon/target3/target3,-0.0546967128363,1.26478034677,0.0149060061817,-0.0482398875278,0.0414772023012,0.133910852916,0.988949158659
1548944322736620922,68693,1548944322736620922,/world,vicon/target3/target3,-0.0544411350337,1.2646699425,0.0149362044266,-0.0381627339025,0.0342841239778,0.129769221667,0.990216215628
1548944322741429243,68694,1548944322741429243,/world,vicon/target3/target3,-0.0543869194401,1.26464069578,0.0150094901779,-0.0368768774415,0.0330190450152,0.130420529239,0.990222360952
1548944322746517420,68695,1548944322746517420,/world,vicon/target3/target3,-0.0544477254845,1.26467006473,0.0149821363842,-0.0356212995897,0.0351159638961,0.130033281824,0.990247109419
1548944322751506859,68696,1548944322751506859,/world,vicon/target3/target3,-0.0544282885161,1.26465463248,0.0149326225963,-0.037751797352,0.0343484559139,0.130154838641,0.990179126901
1548944322756537571,68697,1548944322756537571,/world,vicon/target3/target3,-0.0543979831735,1.2646578653,0.0150291478552,-0.0357277820691,0.0336548745031,0.130221358533,0.990269293067
1548944322761461756,68698,1548944322761461756,/world,vicon/target3/target3,-0.0544942123935,1.26496901829,0.0152694499343,-0.0354543504293,0.0243567895521,0.130851410519,0.990468396368
1548944322766533778,68699,1548944322766533778,/world,vicon/target3/target3,-0.054487094844,1.26489410863,0.0153106008423,-0.038227333495,0.0253778623143,0.133653337073,0.989965363317
1548944322771452866,68700,1548944322771452866,/world,vicon/target3/target3,-0.0544930298533,1.26491854288,0.0152870207367,-0.0379500947075,0.0254775354759,0.133460146773,0.989999532687
1548944322776559134,68701,1548944322776559134,/world,vicon/target3/target3,-0.054378692096,1.26482530319,0.0154125873782,-0.0358280326692,0.0244621085123,0.1361787537,0.989733956355
1548944322781485041,68702,1548944322781485041,/world,vicon/target3/target3,-0.0545313536039,1.26490827382,0.0152504833485,-0.0383724542669,0.0261951297947,0.133048731019,0.990019901367
1548944322786587168,68703,1548944322786587168,/world,vicon/target3/target3,-0.0544476772855,1.26486450203,0.0154276164191,-0.0368242437083,0.026418929448,0.134202742005,0.989916986055
1548944322791457478,68704,1548944322791457478,/world,vicon/target3/target3,-0.0545102566997,1.26491090175,0.0152959869069,-0.037010641037,0.0249273150034,0.133766999391,0.990007692541
1548944322796488209,68705,1548944322796488209,/world,vicon/target3/target3,-0.0545741093714,1.26493718756,0.0151255671796,-0.0391646574641,0.0266623953025,0.131463988465,0.990188096282
1548944322801523673,68706,1548944322801523673,/world,vicon/target3/target3,-0.0545693163006,1.26492814823,0.0152371201748,-0.0374972851912,0.0262767458782,0.13349489436,0.989991211784
1548944322806517715,68707,1548944322806517715,/world,vicon/target3/target3,-0.0544495940805,1.26490924679,0.015318803356,-0.0381794702019,0.02580357661,0.13389880851,0.989923033659
1548944322811485258,68708,1548944322811485258,/world,vicon/target3/target3,-0.0545085970762,1.26490632708,0.0152692914596,-0.0374408202209,0.025180767366,0.134148084689,0.989933535804
1548944322816430982,68709,1548944322816430982,/world,vicon/target3/target3,-0.0532724874711,1.26442274087,0.0166590721033,-0.024318295569,0.0225855053665,0.142540834563,0.989232341733
1548944322821424648,68710,1548944322821424648,/world,vicon/target3/target3,-0.0544451605629,1.26490845159,0.0153472296733,-0.0377048240639,0.0243955370627,0.134538809866,0.989890151812
1548944322826374707,68711,1548944322826374707,/world,vicon/target3/target3,-0.0545591526302,1.264918305,0.0152153206387,-0.0388722771337,0.0268424443804,0.132842784645,0.990010719042
1548944322831217618,68712,1548944322831217618,/world,vicon/target3/target3,-0.0545016051122,1.26490911864,0.01525413335,-0.0375005047228,0.0257846213253,0.133446708069,0.990010525982
1548944322836183906,68713,1548944322836183906,/world,vicon/target3/target3,-0.0545211238671,1.26490461569,0.015214075344,-0.0375128259222,0.0248427558141,0.133327450435,0.990050208997
1548944322841210675,68714,1548944322841210675,/world,vicon/target3/target3,-0.0544333123895,1.26486862634,0.0153936600887,-0.0360356839462,0.0249791634829,0.134351784848,0.989963165366
1548944322846258266,68715,1548944322846258266,/world,vicon/target3/target3,-0.0544757298065,1.26489918132,0.0153651721999,-0.0373914978857,0.0259410838804,0.133939384696,0.989944027347
1548944322851228376,68716,1548944322851228376,/world,vicon/target3/target3,-0.0544605756781,1.26488199523,0.01528713029,-0.0382880960105,0.025470899565,0.133686395494,0.989956161978
1548944322856244449,68717,1548944322856244449,/world,vicon/target3/target3,-0.0545100182787,1.26487661371,0.0152183158425,-0.0375311587733,0.0247755716503,0.133885178399,0.989975930099
1548944322861221250,68718,1548944322861221250,/world,vicon/target3/target3,-0.0544595527318,1.26490682017,0.0153230425461,-0.038607597947,0.0257751552021,0.133395067757,0.989975176786
1548944322866223481,68719,1548944322866223481,/world,vicon/target3/target3,-0.0545565022596,1.26493412127,0.0152562190702,-0.0375973964294,0.0263442955305,0.133584898094,0.989973478875
1548944322871204020,68720,1548944322871204020,/world,vicon/target3/target3,-0.0545435687175,1.26490364871,0.0152303387818,-0.0385911640526,0.026342106891,0.133668791606,0.989923971632
1548944322876246497,68721,1548944322876246497,/world,vicon/target3/target3,-0.0545170438896,1.26492062128,0.0152418879243,-0.0373724828182,0.0249916795292,0.133251270901,0.990062024464
1548944322881209304,68722,1548944322881209304,/world,vicon/target3/target3,-0.0545128855746,1.2648533595,0.0152561695273,-0.0352229657809,0.0250090249746,0.133786847974,0.990068164654
1548944322886232664,68723,1548944322886232664,/world,vicon/target3/target3,-0.0545634426007,1.26494458208,0.0151900428503,-0.0374649187466,0.0265703002593,0.131265198452,0.990282710484
1548944322891236822,68724,1548944322891236822,/world,vicon/target3/target3,-0.0543638904671,1.26482674987,0.0155057609524,-0.0367925929076,0.0246924334872,0.13692078713,0.989590464226
1548944322896238164,68725,1548944322896238164,/world,vicon/target3/target3,-0.0545200976694,1.26491665527,0.0151775702078,-0.0368518522903,0.0271799990673,0.133707878859,0.989962318356
1548944322901237555,68726,1548944322901237555,/world,vicon/target3/target3,-0.0533273832964,1.26439442588,0.0166115791185,-0.023569043058,0.0221557275087,0.142683130969,0.989239681819
1548944322906233153,68727,1548944322906233153,/world,vicon/target3/target3,-0.0533306932643,1.26442332611,0.0166198540395,-0.0237882702294,0.0227457230695,0.142586225028,0.989235016927
1548944322911226407,68728,1548944322911226407,/world,vicon/target3/target3,-0.0545171083227,1.26491177625,0.0152737655975,-0.0375917209957,0.0251699946747,0.133228380877,0.990052287715
1548944322916235535,68729,1548944322916235535,/world,vicon/target3/target3,-0.0544660028776,1.2648755447,0.0153391564606,-0.0395015479402,0.0273491802718,0.133679862036,0.989859254912
1548944322921348708,68730,1548944322921348708,/world,vicon/target3/target3,-0.0545017802185,1.26486808513,0.0153161059452,-0.0368720365578,0.0262451810928,0.133971847452,0.98995110358
1548944322926322175,68731,1548944322926322175,/world,vicon/target3/target3,-0.0544505605714,1.26451370735,0.0150021400828,-0.0435205533237,0.0359630278593,0.13258091309,0.989562996251
1548944322931329824,68732,1548944322931329824,/world,vicon/target3/target3,-0.0544897236142,1.26468098081,0.0149484881735,-0.036957445986,0.0349017513702,0.130100868267,0.990196838519
1548944322936356955,68733,1548944322936356955,/world,vicon/target3/target3,-0.0543896947616,1.26461820025,0.0150500627635,-0.0358202632111,0.0325583049934,0.130707490716,0.990238565897
1548944322941319934,68734,1548944322941319934,/world,vicon/target3/target3,-0.0544175378641,1.26464822803,0.0149696585348,-0.0371294134465,0.031192099527,0.129799989017,0.990353685526
1548944322946309152,68735,1548944322946309152,/world,vicon/target3/target3,-0.0544236283611,1.26462590872,0.0150002480945,-0.0338990279962,0.0336166801726,0.129949892987,0.990370536732
1548944322951341239,68736,1548944322951341239,/world,vicon/target3/target3,-0.0530076020711,1.26405283716,0.0166212428735,-0.0237198709561,0.0293454355315,0.139435058588,0.989512040135
1548944322956342378,68737,1548944322956342378,/world,vicon/target3/target3,-0.0544206940048,1.26465955638,0.0150149568387,-0.038773338355,0.0345544765616,0.129800554929,0.990178990043
1548944322961339079,68738,1548944322961339079,/world,vicon/target3/target3,-0.0543970346361,1.26465086473,0.0150182785142,-0.0353004811334,0.0319786308205,0.129987725309,0.990370857039
1548944322966339790,68739,1548944322966339790,/world,vicon/target3/target3,-0.0545386333488,1.26466237637,0.0148639034307,-0.035172291475,0.0338994337514,0.129777489721,0.99033910428
1548944322971335865,68740,1548944322971335865,/world,vicon/target3/target3,-0.0544243646995,1.26465761053,0.0149168013233,-0.0373187670443,0.0332937635342,0.1295541606,0.990310332374
1548944322976348898,68741,1548944322976348898,/world,vicon/target3/target3,-0.0544032977978,1.26466168618,0.0149725412051,-0.0369672040656,0.0328219049667,0.129914330626,0.990292085738
1548944322981297681,68742,1548944322981297681,/world,vicon/target3/target3,-0.054486180508,1.2646778489,0.0149321240503,-0.0354055510474,0.0344595947716,0.129771821911,0.990312202046
1548944322986334408,68743,1548944322986334408,/world,vicon/target3/target3,-0.0544098843877,1.26462431612,0.0149955089381,-0.0378276002924,0.0355112026334,0.129806210267,0.990180980892
1548944322991355291,68744,1548944322991355291,/world,vicon/target3/target3,-0.0544038729946,1.26463975483,0.0149893590422,-0.0364620308441,0.0323815215572,0.12973117002,0.99034932266
1548944322996336800,68745,1548944322996336800,/world,vicon/target3/target3,-0.0543873420531,1.26462301184,0.0149897262936,-0.0370260547725,0.0336254683626,0.130748662378,0.99015311262
1548944323001337353,68746,1548944323001337353,/world,vicon/target3/target3,-0.054441025393,1.26467193352,0.0149476400476,-0.0379628125674,0.0343657089399,0.130508730955,0.990123878136
1548944323006382427,68747,1548944323006382427,/world,vicon/target3/target3,-0.0544955123128,1.26471077565,0.0148074580683,-0.0385644546812,0.034361416599,0.12758956114,0.990481185976
1548944323011289835,68748,1548944323011289835,/world,vicon/target3/target3,-0.0544769234089,1.26468646193,0.0149084561213,-0.0367139719593,0.0325955839024,0.129594066978,0.990350942836
1548944323016312935,68749,1548944323016312935,/world,vicon/target3/target3,-0.0544387927842,1.2647470847,0.0149728997495,-0.0362294182571,0.0317307822561,0.130419716094,0.990288485424
1548944323021303379,68750,1548944323021303379,/world,vicon/target3/target3,-0.0543427433199,1.26468918461,0.0151158295489,-0.0371586378809,0.0331845452226,0.131269572319,0.990094097029
1548944323026291388,68751,1548944323026291388,/world,vicon/target3/target3,-0.0544483406365,1.26464990494,0.014979390685,-0.0350575888745,0.0337885068054,0.130316757614,0.990276145807
1548944323031292045,68752,1548944323031292045,/world,vicon/target3/target3,-0.0544351296593,1.26466275649,0.0149861364437,-0.0362890190057,0.0330088950207,0.129572800765,0.990355698348
1548944323036296790,68753,1548944323036296790,/world,vicon/target3/target3,-0.0547225975012,1.26471304111,0.0144480253804,-0.0382436551473,0.0437408828227,0.129835254286,0.989831786091
1548944323041284239,68754,1548944323041284239,/world,vicon/target3/target3,-0.052891297103,1.26400391673,0.0167476541724,-0.0247550256388,0.027849091793,0.139455666634,0.989527025319
1548944323046292231,68755,1548944323046292231,/world,vicon/target3/target3,-0.0544293601934,1.26466350934,0.0150055030677,-0.0389473132774,0.0334400396746,0.130259403353,0.990150169607
1548944323051288570,68756,1548944323051288570,/world,vicon/target3/target3,-0.0544416061458,1.26464146185,0.0150002724753,-0.0354185798471,0.0325640994181,0.130014106616,0.99034409965
1548944323056287918,68757,1548944323056287918,/world,vicon/target3/target3,-0.0544246646541,1.26464100166,0.0149768470841,-0.0372281621308,0.0347221313345,0.130832425264,0.990096618538
1548944323061290974,68758,1548944323061290974,/world,vicon/target3/target3,-0.054290820029,1.2645890605,0.0152130860321,-0.0341113488261,0.0318919629561,0.132466564343,0.990086828471
1548944323066285616,68759,1548944323066285616,/world,vicon/target3/target3,-0.0544786005873,1.26467566233,0.0149189732459,-0.0357113129257,0.0348148405648,0.129845602718,0.99027912654
1548944323071262793,68760,1548944323071262793,/world,vicon/target3/target3,-0.0544418113406,1.26466406554,0.0149577006807,-0.0368047756094,0.0335915130925,0.129326106353,0.990349320672
1548944323076242530,68761,1548944323076242530,/world,vicon/target3/target3,-0.0544073224801,1.26464048683,0.0150282237487,-0.0370960038274,0.0336192595777,0.13017831284,0.990225852395
1548944323081295697,68762,1548944323081295697,/world,vicon/target3/target3,-0.0543736929227,1.2647384258,0.0150661416422,-0.0381088642848,0.0338326307385,0.130455547839,0.990143634832
1548944323086307153,68763,1548944323086307153,/world,vicon/target3/target3,-0.0545586463578,1.26474085952,0.0147590624263,-0.039602731647,0.0353267712532,0.126931595196,0.990490794011
1548944323091296880,68764,1548944323091296880,/world,vicon/target3/target3,-0.0544831626635,1.26492032078,0.0152102238098,-0.0345324673668,0.0241084705132,0.130780225136,0.9905164426
1548944323096280270,68765,1548944323096280270,/world,vicon/target3/target3,-0.0545845576181,1.26491837093,0.0151917160548,-0.0393867690562,0.0271049937786,0.132874738464,0.989978942005
1548944323101286651,68766,1548944323101286651,/world,vicon/target3/target3,-0.0545114265419,1.26490377268,0.0152835796182,-0.0373286702264,0.0254078322448,0.133719311394,0.989989978838
1548944323106294526,68767,1548944323106294526,/world,vicon/target3/target3,-0.0545454125649,1.26491941278,0.0152198733784,-0.038875427488,0.0265962090569,0.133014012275,0.989994250155
1548944323111269688,68768,1548944323111269688,/world,vicon/target3/target3,-0.054481727936,1.26486572586,0.0152723520504,-0.0376673243772,0.0259791115556,0.133996291545,0.989924872043
1548944323116289232,68769,1548944323116289232,/world,vicon/target3/target3,-0.054536649181,1.26489389717,0.0152693947722,-0.0362099255612,0.0255907995521,0.134064248827,0.989980166193
1548944323121286900,68770,1548944323121286900,/world,vicon/target3/target3,-0.0544659387412,1.26489750901,0.0153003131918,-0.0377640390842,0.0253721868385,0.133664410249,0.989981795247
1548944323126268383,68771,1548944323126268383,/world,vicon/target3/target3,-0.0532071685999,1.26434835316,0.0166330526717,-0.0246338066698,0.0248037082174,0.142481679262,0.989179924332
1548944323131289231,68772,1548944323131289231,/world,vicon/target3/target3,-0.0544036857749,1.26484934331,0.0153858805616,-0.0392870798297,0.0261053627531,0.134555979825,0.989782664875
1548944323136290833,68773,1548944323136290833,/world,vicon/target3/target3,-0.0544536311251,1.26489273275,0.0153243372783,-0.0363464186047,0.0260818083034,0.133258952138,0.990071072603
1548944323141267602,68774,1548944323141267602,/world,vicon/target3/target3,-0.0533277788566,1.26444916641,0.016584032734,-0.0248787775069,0.0225060388952,0.142462799896,0.989231456884
1548944323146313171,68775,1548944323146313171,/world,vicon/target3/target3,-0.0544846102412,1.26489076964,0.0153230097773,-0.0380466420243,0.0258956212368,0.134235762485,0.989880108852
1548944323151320430,68776,1548944323151320430,/world,vicon/target3/target3,-0.0544837954109,1.26489657984,0.0153555105579,-0.0378142352662,0.0267422201096,0.133239664699,0.990001075265
1548944323156310602,68777,1548944323156310602,/world,vicon/target3/target3,-0.0545329345945,1.26491594773,0.0152709377722,-0.0381948423451,0.0265416618906,0.133592522992,0.989944307526
1548944323161309385,68778,1548944323161309385,/world,vicon/target3/target3,-0.0545157354441,1.26486723398,0.0152028661881,-0.0374521420954,0.0243082335358,0.13372613794,0.990012003395
1548944323166299963,68779,1548944323166299963,/world,vicon/target3/target3,-0.0545680350294,1.26493287641,0.0152123999901,-0.0385795299711,0.0268965755582,0.133204183417,0.989972140826
1548944323171333407,68780,1548944323171333407,/world,vicon/target3/target3,-0.0545219067763,1.26490708727,0.0152675918829,-0.0393581615716,0.0268518933285,0.133358687564,0.989921901664
1548944323176201890,68781,1548944323176201890,/world,vicon/target3/target3,-0.0545034380855,1.264902727,0.0152941275442,-0.0370458659117,0.0268052448254,0.133492297109,0.98999438851
1548944323181180887,68782,1548944323181180887,/world,vicon/target3/target3,-0.0545208515775,1.26492491673,0.0152900081889,-0.0377786351267,0.0262716425601,0.133704243917,0.989952398191
1548944323186163688,68783,1548944323186163688,/world,vicon/target3/target3,-0.0545021738242,1.26492514689,0.0152285753113,-0.0382906263905,0.0252716870656,0.133785808267,0.989947739666
1548944323191162020,68784,1548944323191162020,/world,vicon/target3/target3,-0.0544363527028,1.26487035568,0.015313037003,-0.0388522717213,0.0263550734724,0.134173442325,0.989845138625
1548944323196289518,68785,1548944323196289518,/world,vicon/target3/target3,-0.0544009414916,1.26487092046,0.0154312648071,-0.0350509668398,0.0238716874811,0.136036243382,0.989795793458
1548944323201183279,68786,1548944323201183279,/world,vicon/target3/target3,-0.054408972959,1.26486430444,0.0154039049327,-0.0388800025897,0.0253769796203,0.134905020492,0.989770170166
1548944323206184715,68787,1548944323206184715,/world,vicon/target3/target3,-0.0545610702824,1.2649259975,0.0152489362047,-0.0359000276882,0.0253531633523,0.133641657441,0.99005470178
1548944323211197841,68788,1548944323211197841,/world,vicon/target3/target3,-0.0547724896285,1.26480580863,0.0148882983402,-0.0469701760883,0.0410880243553,0.133395236415,0.989096197402
1548944323216195055,68789,1548944323216195055,/world,vicon/target3/target3,-0.0543962704937,1.2646330805,0.0150470647178,-0.0356729784898,0.0323945929977,0.130247874058,0.990309810238
1548944323221189771,68790,1548944323221189771,/world,vicon/target3/target3,-0.0544813803404,1.2647002944,0.0149120184034,-0.035951532566,0.0346797894568,0.129444565906,0.990327674998
1548944323226193045,68791,1548944323226193045,/world,vicon/target3/target3,-0.0544239592882,1.26467039602,0.0149995922349,-0.037187046543,0.0333933651394,0.129960642241,0.990258672369
1548944323231202222,68792,1548944323231202222,/world,vicon/target3/target3,-0.0544698768565,1.26466715141,0.014983888351,-0.0369769000524,0.0355411546851,0.12962855489,0.990235311905
1548944323236171719,68793,1548944323236171719,/world,vicon/target3/target3,-0.0543735146057,1.26462695369,0.0150406226659,-0.0352437324496,0.0339736455216,0.130512496829,0.990237425522
1548944323241273077,68794,1548944323241273077,/world,vicon/target3/target3,-0.0546616165243,1.26465878617,0.0145328335339,-0.0379740931887,0.0440469275405,0.130003188192,0.989806550534
1548944323246319788,68795,1548944323246319788,/world,vicon/target3/target3,-0.0544282441542,1.26494007513,0.0152113215564,-0.0334252644947,0.0224783496075,0.130449723456,0.990636333446
1548944323251312203,68796,1548944323251312203,/world,vicon/target3/target3,-0.0545804047174,1.2644447004,0.0148969936775,-0.0418541261078,0.0384921633052,0.131763791064,0.989648871498
1548944323256313299,68797,1548944323256313299,/world,vicon/target3/target3,-0.0544779093682,1.26491887484,0.015241428739,-0.0329771581372,0.0237027280069,0.131255284518,0.990516399669
1548944323261294832,68798,1548944323261294832,/world,vicon/target3/target3,-0.0533695630602,1.26444544978,0.0166300061855,-0.0246328027052,0.0237630325143,0.142709123899,0.989172709527
1548944323266318069,68799,1548944323266318069,/world,vicon/target3/target3,-0.0545114987734,1.26489506934,0.0153271276505,-0.0384220309684,0.0270380863597,0.133650997463,0.989914188351
1548944323271323348,68800,1548944323271323348,/world,vicon/target3/target3,-0.0544705041789,1.26486467379,0.0153314858809,-0.0381654625765,0.0250711561764,0.133600559176,0.989982689335
1548944323276293061,68801,1548944323276293061,/world,vicon/target3/target3,-0.0544792197973,1.26487477181,0.0154459689497,-0.038001137065,0.0264350065201,0.134202684833,0.98987208436
1548944323281342716,68802,1548944323281342716,/world,vicon/target3/target3,-0.0545314464403,1.26488497052,0.0152934505735,-0.0377767886283,0.0270970202468,0.133416712132,0.989969012979
1548944323286309026,68803,1548944323286309026,/world,vicon/target3/target3,-0.0544914378969,1.26489671718,0.0153516848247,-0.039055486244,0.0269498224752,0.134091259174,0.989832263707
1548944323291295986,68804,1548944323291295986,/world,vicon/target3/target3,-0.0546516619871,1.26472774668,0.0149877752145,-0.0473255157224,0.0399794492386,0.133803994343,0.989069476982
1548944323296292549,68805,1548944323296292549,/world,vicon/target3/target3,-0.0544757935501,1.26472380311,0.0150120109686,-0.03491715526,0.0346773474203,0.130362946653,0.990244301162
1548944323301293554,68806,1548944323301293554,/world,vicon/target3/target3,-0.0544042361456,1.26465063331,0.0150610673991,-0.036367172152,0.0341875044001,0.129364531582,0.990340073561
1548944323306285056,68807,1548944323306285056,/world,vicon/target3/target3,-0.0543999589397,1.26464473074,0.0150727050821,-0.0372717001563,0.0328137346042,0.130618027571,0.990188370999
1548944323311300492,68808,1548944323311300492,/world,vicon/target3/target3,-0.0544045412612,1.2646522296,0.015060908054,-0.0372636446858,0.0332799613835,0.130399951858,0.990201856952
1548944323316291848,68809,1548944323316291848,/world,vicon/target3/target3,-0.0544988418402,1.26469731484,0.0149054507906,-0.0372912703657,0.0349616606474,0.129784506409,0.99022372489
1548944323321281572,68810,1548944323321281572,/world,vicon/target3/target3,-0.0548269493347,1.26475922133,0.0143806757191,-0.0357813133107,0.0443650416129,0.129398350661,0.989953285538
1548944323326291417,68811,1548944323326291417,/world,vicon/target3/target3,-0.0543976975977,1.26471238138,0.0149643262815,-0.0348645463541,0.0322969098033,0.129422914824,0.990449939241
1548944323331306032,68812,1548944323331306032,/world,vicon/target3/target3,-0.0530434667093,1.26410596536,0.0166136534963,-0.0251932792373,0.029085876719,0.13881301275,0.989570744287
1548944323336311255,68813,1548944323336311255,/world,vicon/target3/target3,-0.0544929009676,1.26469327172,0.0149025625443,-0.035234215952,0.0330505743052,0.129421591193,0.990412167382
1548944323341287511,68814,1548944323341287511,/world,vicon/target3/target3,-0.0544058371255,1.26491971243,0.015326203498,-0.0347844639727,0.0237448274053,0.131436680059,0.990429514591
1548944323346290187,68815,1548944323346290187,/world,vicon/target3/target3,-0.0544739459773,1.26489653506,0.0153211748804,-0.0380540958109,0.0252761281464,0.133215957838,0.990033591205
1548944323351314699,68816,1548944323351314699,/world,vicon/target3/target3,-0.0529899856546,1.26407084175,0.0166490059584,-0.0236596797177,0.0290986110705,0.138833893902,0.989605295203
1548944323356306142,68817,1548944323356306142,/world,vicon/target3/target3,-0.0544572171739,1.26463734186,0.0149724275943,-0.0356439168592,0.0321597150145,0.129499877124,0.990416602116
1548944323361290824,68818,1548944323361290824,/world,vicon/target3/target3,-0.0544123455504,1.26462904204,0.0149452835983,-0.0358262123078,0.0320942399664,0.130147955435,0.9903271944
1548944323366284375,68819,1548944323366284375,/world,vicon/target3/target3,-0.0544729355807,1.26493636413,0.0152082302986,-0.037708545603,0.024159687562,0.129246493208,0.990600685987
1548944323371286857,68820,1548944323371286857,/world,vicon/target3/target3,-0.0545041318602,1.264879492,0.0152910260449,-0.0371522698604,0.0261294591191,0.132902552587,0.990087810109
1548944323376290380,68821,1548944323376290380,/world,vicon/target3/target3,-0.0544868639741,1.26488724029,0.0153206211421,-0.037505566461,0.0263150167331,0.133579036328,0.989978531804
1548944323381291309,68822,1548944323381291309,/world,vicon/target3/target3,-0.0545910658398,1.26496281674,0.0152439458929,-0.0378291627801,0.0264597402501,0.133679433748,0.989948809577
1548944323386307973,68823,1548944323386307973,/world,vicon/target3/target3,-0.0546814310128,1.26476124361,0.0149624119774,-0.0463106491115,0.0390381925977,0.13401139553,0.989127033887
1548944323391293042,68824,1548944323391293042,/world,vicon/target3/target3,-0.0544804283027,1.26493045686,0.0152524612116,-0.0320351118195,0.022948459434,0.131487007202,0.990534344057
